name,category,city,Website,phone_no,fb_address,contact_email,lat,lng,map_id
2B Whole Gluten Free Bakery,Bakery/Cafe,"42 Milton Ave Ste B, Alpharetta, GA 30009, USA",https://www.2bwhole.net,1 470-395-5248,https://www.facebook.com/2bWholeBakery,gf@2bwhole.net,34.07541,-84.29577,https://goo.gl/maps/rPp6vbU6JBsAj21JA
3 Bears Gluten Free,Bakery/Cafe,"51 Market St, Potsdam, NY 13676, USA",http://www.3bearsglutenfree.com/,1 315-274-9308,https://www.facebook.com/3BearsGlutenFreeBakery,3bearsglutenfreebakery@gmail.com,44.67013,-74.9873,https://goo.gl/maps/5PghJBC9gu9ZFFdv8
5 Points Local,Cafe,"1017 N Flores St, San Antonio, TX 78212, USA",http://www.5pointslocal.com,1 210-267-2652,https://www.facebook.com/5pointslocal/?ref=bookmarks,INFO@5POINTSLOCAL.COM,29.43526,-98.50057,https://goo.gl/maps/tKdWRPcGQiA6tPUc6
5b's Bakery,Bakery,"45597 Main St, Concrete, WA 98237, USA",http://5bsbakery.com/index.html,1 360-853-8700,https://www.facebook.com/5bsBakery,info@5bsbakery.com,48.53901,-121.75326,https://goo.gl/maps/BjoNLximHx4d7HyP6
A & J Bakery,Bakery,"1458 Park Ave, Cranston, RI 02920, USA",http://www.aandjbakery.net,1 401-228-8696,https://www.facebook.com/Aandjbakery/,,41.78284,-71.46364,https://goo.gl/maps/JpWfotSnNdbxc4dt6
Alby's Gluten Free Bakery,Bakery,"66 Holbrooks Rd, Flinders Park SA 5025, Australia",,61 8 8352 5525,https://www.facebook.com/AjsFineFoodsPtyLtd/,,-34.91059,138.54857,https://goo.gl/maps/EkzPUcCC2KmJAzKK8
Aleia's Gluten Free Foods,Bakery,"4 Pin Oak Dr, Branford, CT 06405, USA",http://www.aleias.com/,1 203-488-5556,https://www.facebook.com/Aleias-Gluten-Free-Foods-263775553639758/,connect@aleias.com,41.29918,-72.75119,https://goo.gl/maps/7n6cLXrZAKAh2WVM7
AllerGeena Gluten Free,Bakery,,http://www.allergeena.com/,,https://www.facebook.com/Allergeena/,FB/allergeena@maine.rr.com,-34.9105828,138.5466415,https://goo.gl/maps/dAC2ntiT5BYJ3ZLC6
Allergy Free Baking Company,Bakery,"14011 W Quincy Ave J, Morrison, CO 80465, USA",https://www.allergyfreebakingcompany.com/,1 720-572-7838,https://www.facebook.com/allergyfreebakingcompany/, nicole@allergyfreebakingcompany.com,39.63532,-105.15745,https://g.page/allergyfreebakingcompany?share
Allie's GF Goodies,Bakery,"1B W Village Green, Hicksville, NY 11801, USA",https://alliesgfg.com/,1 516-216-1719,https://www.facebook.com/AlliesGfGoodiesHomemadeGlutenFreeGoodness/,Agfgoodies@optimum.net,40.74505,-73.53378,https://goo.gl/maps/KBoeZyLjQMqQfBbL6
Almond Butterfly,Bakery,"100 Harbord St, Toronto, ON M5S 1G6, Canada",http://www.almondbutterfly.com/index.html,1 416-792-7994,https://www.facebook.com/almondbutterfly,info@almondbutterfly.com,43.66302,-79.40344,https://goo.gl/maps/55oNj2GBbNT1RQgeA
Alriso Restaurant,Restaurant,"Betl?msk? nòm. 11/259, 110 00 Star? M?sto, Czechia",http://www.alriso.cz/en/,420 222 233 341,https://www.facebook.com/Alriso,info@alriso.cz,50.08391,14.41683,https://goo.gl/maps/3tNHZHfxcVUCCjHaA
Ancient Grains Bakery,Bakery,"687 Fergusson Dr, Elderslea, Upper Hutt 5018, New Zealand",http://www.ancientgrains.co.nz,64 04-528-5100,,lee@ancientgrains.co.nz,-41.12588,175.05452,https://goo.gl/maps/ikDsJAC4fgK5Z7kq5
AnnaB's Gluten Free Bakery,Bakery,"7426 Brandy Creek Dr, Mechanicsville, VA 23111, USA",http://www.annabsglutenfree.com,1 804-822-0656,,annabglutenfree@gmail.com,37.6117,-77.33316,https://goo.gl/maps/XvG5LuiZVkjFhKtX9
Annie May's Sweet Cafe,Bakery/Cafe,"3110 Frankfort Ave, Louisville, KY 40206, USA",http://www.anniemayssweetcafe.com/,1 502-384-2667,,info@anniemayssweetcafe.com,38.25415,-85.67667,https://goo.gl/maps/sgQhWTSqq1nRpr1U8
Ap?ti - Cuisine V?g?tale,Cafe/Restaurant,"72 Rue du Cherche-Midi, 75006 Paris, France",http://www.apeti.fr/,33 1 43 22 17 98,https://www.facebook.com/apetirestaurant,,48.84827,2.32394,https://goo.gl/maps/WX8avtMyYfBb1mS56
Apres Food,Restaurant,"72 St John St, Farringdon, London EC1M 4DT, UK",https://www.apresfood.com/,44 20 7686 8888 +33 1 43 22 17 98,https://www.facebook.com/ApresFoodCo/,hello@apresfood.com,51.521389,-0.10168,https://goo.gl/maps/z773fbVB7nLvWNVf9
Arepera Du Plateau,Cafe/Restaurant,"73 Rue Prince Arthur E, Montr?al, QC H2X 1B4, Canada",http://www.arepera.ca,1 514-508-7267,https://www.facebook.com/areperamontreal/,contact@arepera.ca,45.51475,-73.57209,https://goo.gl/maps/N3Dd8LMc5MnRDdYFA
Around my Gluten Free Table,Bakery,"411 Huronia Rd Unit 10, Barrie, ON L4N 9B3, Canada",http://www.amgft.com/,1 705-722-0668,https://www.facebook.com/aroundmyglutenfreetablebarrie,,44.35251,-79.66444,https://goo.gl/maps/6fK99EotsRWLnZDj9
As de Bastos Madrid,Restaurant,"Calle de Castilla, 62, 28039 Madrid, Spain",https://www.asdebastos.es/madrid/,34 917 95 78 55,https://es-la.facebook.com/RestauranteAsdeBastos/,info@asdebastos.es,40.4532,-3.70796,https://g.page/as-de-bastos-madrid?share
As de Bastos Majadahonda,Restaurant,"Calle Dr. Bastos, 9, 28220 Majadahonda, Madrid, Spain",https://www.asdebastos.es/majadahonda/,34 916 38 25 14,https://es-la.facebook.com/RestauranteAsdeBastos/,info@asdebastos.es,40.47624,-3.87535,https://g.page/as-de-bastos-majadahonda?share
Asian Box Santa Monica,Cafe,"2121 Cloverfield Blvd #2, Santa Monica, CA 90404, USA",http://www.asianbox.com,1 424-280-4607,https://www.facebook.com/AsianBoxEats/,,34.02167,-118.46573,https://goo.gl/maps/hG9WoSSJfPvmGw4J9
Asian Box San Jose,Cafe,"1078 E Brokaw Rd, San Jose, CA 95131, USA",http://www.asianbox.com,1 408-441-0477,https://www.facebook.com/AsianBoxEats/,,37.38268,-121.89678,https://goo.gl/maps/pdKnXq25qjfHYGLj6
Asian Box San Francisco,Cafe,"2031 Chestnut St, San Francisco, CA 94123, USA",http://www.asianbox.com,1 415-288-3688,https://www.facebook.com/AsianBoxEats/,,37.8006,-122.43671,https://goo.gl/maps/Rmr6avr8mESSh1cPA
Asian Box Palo Alto,Cafe,"855 El Camino Real, Palo Alto, CA 94301, USA",http://www.asianbox.com,1 650-391-9305,https://www.facebook.com/AsianBoxEats/,,37.4382,-122.1609,https://goo.gl/maps/GmUVckEf2qj9YkBg6
Asian Box Mountain View,Cafe,"142 Castro St, Mountain View, CA 94041, USA",http://www.asianbox.com,1 650-584-3947,https://www.facebook.com/AsianBoxEats/,,37.39458,-122.07886,https://goo.gl/maps/Mn6LxE7WZvAG44MWA
Asian Box Los Angeles #1,Cafe,"10250 Santa Monica Blvd, Los Angeles, CA 90067, USA",http://www.asianbox.com,1 310-203-9702,https://www.facebook.com/AsianBoxEats/,,34.0586,-118.419,https://goo.gl/maps/tLPyYe4Pqy9zCLBL9
Asian Box Los Angeles #2,Cafe,"445 S Figueroa St, Los Angeles, CA 90071, USA",http://www.asianbox.com,1 213-265-7955,https://www.facebook.com/AsianBoxEats/,,34.05312,-118.25733,https://goo.gl/maps/uXGuGzKxMm36ut3r7
Asian Box Irvine,Cafe,"4503 Campus Dr, Irvine, CA 92612, USA",http://www.asianbox.com,1 949-769-6196,https://www.facebook.com/AsianBoxEats/,,33.66605,-117.85428,https://goo.gl/maps/rxH3ewqyuU31LTN46
Asian Box Campbell,Cafe,"1875 S Bascom Ave, Campbell, CA 95008, USA",http://www.asianbox.com,1 408-628-4228,https://www.facebook.com/AsianBoxEats/,,37.28839,-121.93258,https://goo.gl/maps/7RTdKfVJC9GJR9Xd8
Asian Box Burlingame,Cafe,"1401 Burlingame Ave, Burlingame, CA 94010, USA",http://www.asianbox.com,1 650-315-2582,https://www.facebook.com/AsianBoxEats/,,37.5776,-122.3481,https://goo.gl/maps/JbiiiNfQkZzRCeQo7
Athlete's Kitchen,Cafe,"171 E Liberty St #131, Toronto, ON M6K 3P6, Canada",https://athleteskitchen.ca/,1 416-516-0101,,oscar@athleteskitchen.ca,43.63841,-79.41513,https://goo.gl/maps/yFekHo5hYdJf1fbx8
Back to Eden Food Cart,Food Truck,"4804 SE Woodstock Blvd, Portland, OR 97202, USA",https://www.backtoedenbakery.com/,1 503-477-5022,https://www.facebook.com/backtoedenbakery,,45.47921,-122.623619,https://goo.gl/maps/hTYeuTNoMhRB1Qe37
Back to Eden Bakery,Bakery,"2215-2217 NE Alberta St, Portland, OR 97211, USA",https://www.backtoedenbakery.com/,1 503-477-5022,https://www.facebook.com/backtoedenbakery,,45.55911,-122.66563,https://goo.gl/maps/KuTqDeyy6WErdkoq8
Back to Eden Bakery Food Truck,Bakery,"4804 SE Woodstock Blvd, Portland, OR 97202, USA",https://www.backtoedenbakery.com/,1 503-477-5022,https://www.facebook.com/backtoedenbakery,,45.47921,-122.62362,https://goo.gl/maps/GXvRdBPMS1onhZYU9
Bake Free Karon,Bakery/Cafe,"681/5 Patak Road, Karon, Muang, Phuket 83100, Thailand",http://www.bakefree.co/,66 94 583 3262,https://www.facebook.com/bakefreestore/,,7.82099,98.30433,https://goo.gl/maps/HVGG6z6fsswRnrAPA
Bake Free Soi Ta-iead,Bakery/Cafe,"45/40 Moo 1 Soi Ta-iead, Chalong, Muang, Phuket 83130, Thailand",http://www.bakefree.co/,66 92 516 4021,https://www.facebook.com/bakefreestore/,,7.85043,98.35079,https://goo.gl/maps/GVNQoy5R5Gsg7f1c6
Bake Free,Bakery/Cafe,"Rawai, Mueang Phuket District, Phuket 83100, Thailand",http://www.bakefree.co/,66 92 516 4021,https://www.facebook.com/bakefreestore/,,7.84787,98.29848,https://goo.gl/maps/6sgFxA3aNv9WUkC28
Bites of Delight,Bakery,"Rabyeh, Sargi food street, Nadim dagher building, 1st floor? Rabyeh? Lebanon",http://bites-of-delight.com,961 70 487 796,,,31.974178,35.884238,https://goo.gl/maps/2ia5ApBys5UPPKRg8
Bake Me Happy,Bakery,"106 E Moler St, Columbus, OH 43207, USA",https://www.bakemehappygf.com/,1 614-477-3642,https://www.facebook.com/BakeMeHappyGF/,bakemehappygf@gmail.com,39.93523,-82.99271,https://goo.gl/maps/1ym4jwPX9ZRjVjd7A
Baked2GO,Bakery,4255 Boul. Saint Laurent,https://www.baked2go.com,1 514-844-3232,,info@baked2go.com,45.51858,-73.58261,https://goo.gl/maps/xsxvgZzGzqjb7GoEA
Baker Street Bakeshop,Online,,http://bakerstreetbakeshop.com/,1 484-272-2193,https://www.facebook.com/BakerStreetBakeshop/,contactus@bakerstreetbakeshop.com,,,
Bam Bam Bakery,Bakery,"267 Commercial St, Portland, ME 04101, USA",http://bambambakery.com/,1 207-8994100,https://www.facebook.com/BamBamBakery/?ref=ts,info@bambambakery.com,43.65882,-70.249062,https://goo.gl/maps/mnzN7FzY6rWYpAZp7
Bangkok Canteen Gloucester,Restaurant,"72 Westgate St, Gloucester GL1 2NZ, UK",http://www.bangkokcanteen.co.uk,44 1452 306288,https://www.facebook.com/BKKCanteenUK/,info@bangkokcanteen.co.uk,51.86666,-2.24828,https://goo.gl/maps/7459XJFa3yfzKxAdA
Bar Italia,Cafe/Restaurant,"Av. Italia 1423, Providencia, Regi?n Metropolitana, Chile",http://www.baritalia.cl/#/inicio/,56 2 2503 2870,,,-33.44396,-70.62577,https://goo.gl/maps/imUAsY38RjZJaCQP7
Bare Naked Bakery and Cafe Bellmore,Bakery/Cafe,"2572 Merrick Rd, Bellmore, NY 11710, USA",http://www.barenakedbakery.com/,,,info@barenakedbakery.com,40.66236,-73.53039,https://goo.gl/maps/W3Mp5x5ra6CW4cRX6
Bare Naked Bakery and Cafe Planview,Bakery/Cafe,"16 Manetto Hill Rd, Plainview, NY 11803, USA",http://www.barenakedbakery.com/,1 516-513-0598,,info@barenakedbakery.com,40.77757,-73.46712,https://goo.gl/maps/tN3qnrRFAeZkWDyc6
Be Bop,Restaurant,"Viale Col di Lana, 4, 20136 Milano MI, Italy",http://www.bebopristorante.it/,39 02 837 6972,https://www.facebook.com/BeBopRistorante,,45.452143,9.182287,https://goo.gl/maps/dZhGY92YP644F3YR7
Be Free Libre de Gluten,Bakery,"Calle 118 105, San Jos?, San Rafael, Costa Rica",,506 2289 3631,https://www.facebook.com/befreecostarica/,,9.931425,-84.131008,https://goo.gl/maps/N7yTQmeXnXQigDBy6
Beach Town Bakery,Bakery,"307 Cedar Point Blvd, Cedar Point, NC 28584, USA",http://beachtownbakery.com/,1 252-503-3345,https://www.facebook.com/BeachTownBakery/,,34.677028,77.103037,https://goo.gl/maps/Qy3yXDZvyxXu5i2s6
Beaming Organic Super Food Cafe La Cienega Blvd,Cafe,"605 N La Cienega Blvd, Los Angeles, CA 90069, USA",http://www.livebeaming.com/,1 310-299-7691,,,34.082255,-118.376794,https://goo.gl/maps/yF2J7ofnpH2VtMwR9
Beaming Organic Super Food Cafe Montana Ave,Cafe,"1426 Montana Ave, Santa Monica, CA 90403, USA",http://www.livebeaming.com/,1 310-299-7622,,,34.032641,118.494478,https://goo.gl/maps/tUQpTRC93R8Z556V7
Beaming Organic Super Food Cafe Pasadena at Equinox,Cafe,"300 E Colorado Blvd, Pasadena, CA 91101, USA",http://www.livebeaming.com/,1 626-360-3103,,isabelle.deburgh@livebeaming.com,34.145149,-118.145452,https://goo.gl/maps/DSuNDMfn6zYAGaeX9
Beaming Organic Super Food Cafe Century City,Cafe,"10250 Santa Monica Blvd, Los Angeles, CA 90067, USA",http://www.livebeaming.com/,1 310-421-4500,,isabelle.deburgh@livebeaming.com,34.059965,118.419069,https://goo.gl/maps/hFMue4dVCt2jqDa19
Beaming Organic Super Food Cafe La Jolla,Cafe,"7863 Girard Ave suite 201, La Jolla, CA 92037, USA",http://www.livebeaming.com/,1 858-263-1702,,isabelle.deburgh@livebeaming.com,32.846637,-117.274092,https://goo.gl/maps/aQ8nTDLTWxPJYsQL6
Beaming Organic Super Food Cafe La Costa at Equinox,Cafe,"at La Costa Shopping Center 7710, El Camino Real, La Costa, CA 92009, United States",http://www.livebeaming.com/,1 760-944-3331,,isabelle.deburgh@livebeaming.com,33.084649,-117.267366,https://goo.gl/maps/aLQoZz6znbAvreen8
Beaming Organic Super Food Cafe Del Mar,Cafe,"2683 Via De La Valle, Del Mar, CA 92014, USA",http://www.livebeaming.com/,1 858-481-1222,,isabelle.deburgh@livebeaming.com,32.979446,-117.249817,https://goo.gl/maps/rdDqw8v3wYrm4gJPA
Bears & Raccoons,Cafe,"21 Rue Richard Lenoir, 75011 Paris, France",http://bearsandraccoons.com/,33 9 51 67 87 71,https://www.facebook.com/bearsandraccoons/,bearsandraccoons@gmail.com,48.855441,2.381825,https://goo.gl/maps/16XSEygNWAYTWjxa8
Beat Tha Wheat,Bakery,"7th Circle, Jaber Complex
next to Za?atar and Zeit super market
Amman, Jordan
",,962 7 9087 6721,https://www.facebook.com/BeatThaWheat,,31.975118,35.850902,https://goo.gl/maps/RA8mMY1DWq2ZCGkP6
Beiju Tapiocaria Via Catarina,Cafe/Restaurant,"Rua de Santa Catarina 312, 4000-446 Porto, Portugal",https://beijutapiocaria.com,351 21 587 3073,https://www.facebook.com/tapiocabeiju/,info@beijutapiocaria.com,41.148973,-8.605685,https://goo.gl/maps/zLFVVL6Fri5non2JA
Beiju Tapiocaria Amoreiras,Cafe/Restaurant,Amoreiras Shopping Center - Piso 1 Av. Eng. Duarte Pacheco,https://beijutapiocaria.com,,https://www.facebook.com/tapiocabeiju/,info@beijutapiocaria.com,38.723025,-9.162762,https://goo.gl/maps/NEYFkzbJrzoP2gbM7
Beiju Tapiocaria Cascais Kitchen,Cafe/Restaurant,"CascaiShopping, 2645-543 Alcabideche, Portugal",https://beijutapiocaria.com,351 21 605 2532,https://www.facebook.com/tapiocabeiju/,info@beijutapiocaria.com,38.739341,-9.397987,https://goo.gl/maps/UnH9CHVZgy2fyRkY7
Benefit Your Life Gluten Free Bakery & Cafe,Bakery/Cafe,"10420 Kingston Pike suite g, Knoxville, TN 37922, USA",http://www.benefityourlife.com/,1 865-288-3193,https://www.facebook.com/Benefit-Your-Life-Gluten-Free-Market-Bakery-263566147733/?ref=bookmarks,,35.897939,-84.128404,https://goo.gl/maps/jM9Kfbyov4t943NE8
Better Bites Bakery,Bakery,"11190 Circle Dr, Austin, TX 78736, USA",http://www.betterbitesbakery.com,1 512-350-2271,https://www.facebook.com/Betterbitesbakery/,Rachel@betterbitesbakery.com,30.223997,-97.953827,https://goo.gl/maps/T2132NRMaFhZ9Yc17
Beyond Bread Selfridges,Bakery,"Selfridges Food Hall, 400 Oxford St, Marylebone, London W1A 1AB, UK",http://www.beyondbread.co.uk/,44 (0) 2073 183 069,https://www.facebook.com/GlutenFreeBeyondBreadBakery/,info@beyondbread.co.uk,51.514815,-0.15367,https://goo.gl/maps/qYUDPGbMfdww2av98
Beyond Bread,Bakery,"2 Charlotte Pl, Fitzrovia, London W1T 1SB, UK",http://www.beyondbread.co.uk/,44 (0) 2076 367 055,https://www.facebook.com/GlutenFreeBeyondBreadBakery/,info@beyondbread.co.uk,51.5189712,-0.1364739,https://goo.gl/maps/WAY1Uu6FnJEFGZwv7
Big Mike's Gluten Free,Bakery,"5651 Coral Ridge Dr, Coral Springs, FL 33076, USA",https://www.bigmikesglutenfree.com/,1 954-906-8580,https://www.facebook.com/Big-Mikes-Gluten-Free-Baking-Company-538102126295038/,bigmikesglutenfree@gmail.com,26.2996845,-80.2791717,https://goo.gl/maps/Xs8nsxPig79ZfGig9
Biosphere Caf?,Cafe,"47 Rue de Laborde, 75008 Paris, France",http://biospherecafe.fr/en/,33 1 42 93 45 58,https://www.facebook.com/Biosph%C3%A8re-Caf%C3%A9-187142677980184/,,48.8754492,2.315615,https://goo.gl/maps/h46jYgxhjx3neBHU9
Manal? - Bistrot & Bakery Lab,Restaurant,"Piazza Elia Benamozegh, 15, 57125 Livorno LI, Italy",http://www.bistrotmanalu.it,39 0586 958326,https://www.facebook.com/bistrotmanalu,,43.548428,10.3070043,https://goo.gl/maps/6P4UfqRGQ7c8qGwN7
BitterSweet Gluten Free Bakery,Bakery,"2105 Cliff Rd #5, Eagan, MN 55122, USA",http://bittersweetgf.com/,1 651-686-0112,,info@bittersweetgf.com ,44.7908663,-93.2168527,https://goo.gl/maps/Su9kuF8ogfxTFBiWA
Blondies Vegan Bakery & Cafe,Bakery/Cafe,"870 N Congress Ave suite 110, Boynton Beach, FL 33426, USA",https://www.blondiesvegan.com/,1 561-767-9066,https://www.facebook.com/blondiesveganbakery/,,26.535448,-80.0913427,https://goo.gl/maps/SnQv29bgKUzUroGP7
Brightwok Kitchen,Cafe,"21 E Adams St, Chicago, IL 60603, USA",https://www.facebook.com/brightwok,1 312-583-0729,https://www.facebook.com/brightwok,hi@brightwok.com,41.87943,-87.6268263,https://goo.gl/maps/CNSjQRzXNqv9wRT1A
Brio Gluten Free Bakery,Bakery,"Piazzetta Napoleone, 37036 San Martino Buon Albergo VR, Italy",http://www.brioglutenfreebakery.com/,39 327 244 5333,https://www.facebook.com/Brio-Gluten-Free-Bakery-1475758559376276/,,45.422233,11.0895153,https://goo.gl/maps/tP3dGfn4H8tWveRK6
Buddha-Full,Cafe,"102-2120 Dollarton Hwy, North Vancouver, BC, Canada",https://www.buddha-full.ca,1 604-770-1032,https://www.facebook.com/Buddhafullcafe,info@buddha-full.ca,49.3056416,-123.0199975,https://goo.gl/maps/W4rq7M6N9WNmCfoWA
Buddha-Full,Cafe,"106 W 1st St #101, North Vancouver, BC V7M 1A9, Canada",https://www.buddha-full.ca,1 604-973-0231,https://www.facebook.com/Buddhafullcafe,info@buddha-full.ca,49.3121844,-123.0811624,https://goo.gl/maps/V3S6RPDbaxKpjjrn9
BÅL ,Cafe,"20 Avenue Trudaine, 75009 Paris, France",http://www.bul-baracannes.fr/,33 1 40 16 02 74,https://www.facebook.com/bulbaracannes/?fref=ts,,46.1022649,0.220262,https://goo.gl/maps/vTbrUTocL84gzuE78
Bulletproof Cafe Santa Monica,Cafe,"3110 Main St, Santa Monica, CA 90405, USA",https://bulletproofcoffee.com/welcome,1 310-399-1764,,,33.9974492,-118.4815155,https://goo.gl/maps/g5WJV4LgnGzMyDx8A
Bulletproof Coffee,Cafe,"300 S Santa Fe Ave, Los Angeles, CA 90013, USA",https://bulletproofcoffee.com/welcome,1 213-265-7040,https://www.facebook.com/Bulletproof/,,34.0453978,-118.2342215,https://goo.gl/maps/oN1uffXuJA73QbA97
Bunner's,Bakery,"244 Augusta Ave, Toronto, ON M5T 2L7, Canada",http://www.bunners.ca/,1 647-350-2975,https://www.facebook.com/BunnersBakeShop,junction@bunners.ca,43.6606026,-79.4545761,https://goo.gl/maps/8mg4mHS4Hm1PBGn39
Bunner's,Bakery,"3054 Dundas St W, Toronto, ON M6P 1Z7, Canada",http://www.bunners.ca/,1 647-352-2975,https://www.facebook.com/BunnersBakeShop,junction@bunners.ca,43.6656916,-79.473634,https://goo.gl/maps/YGycM3EQZhH1p5QZ7
By the Way Bakery,Bakery,"2442 Broadway, New York, NY 10024, USA",http://www.btwbakery.com,1 212-988-3300,https://www.facebook.com/bythewaybakery/,helene@btwbakery.com,40.9048591,-73.9404325,https://goo.gl/maps/SkqTF5UaA3DinNjXA
By the Way Bakery,Bakery,"1236 Lexington Ave, New York, NY 10028, USA",http://www.btwbakery.com,1 212-877-0806,https://www.facebook.com/bythewaybakery/,helene@btwbakery.com,40.9046896,-73.9404332,https://goo.gl/maps/KhDirzgYnKwyiz9n6
By the Way Bakery,Bakery,"19 E Putnam Ave, Greenwich, CT 06830, USA",http://www.btwbakery.com,1 914-478-0555,https://www.facebook.com/bythewaybakery/,helene@btwbakery.com,40.9048591,-73.9404325,https://goo.gl/maps/tqAXzajsaQueAMzd9
By the Way Bakery,Bakery,"574 Warburton Ave, Hastings-On-Hudson, NY 10706, USA",http://www.btwbakery.com,1 203-489-3610,https://www.facebook.com/bythewaybakery/,helene@btwbakery.com,40.9046896,-73.9404332,https://goo.gl/maps/8Rwa3afhDtNy5mZX6
Cafe Avalaun,Cafe/Restaurant,"4640 Richmond Rd #200, Cleveland, OH 44128, USA",http://www.cafeavalaun.com,1 216-245-6666,http://www.facebook.com/cafeavalaun,cafeavalaun@gmail.com,41.4338857,",-81.5006722",https://goo.gl/maps/VumJ4ohcmGLHmaYTA
Cafe Henkel,Cafe,"102 Henkel St, Brunswick VIC 3056, Australia",,61 3 9381 0099,https://www.facebook.com/cafehenkel/?ref=br_rs,,-37.7650379,144.9522691,https://goo.gl/maps/NF4sPMBX3WkDTZhB9
Cafe Mareva,Cafe,"38 Rue du Faubourg du Temple, 75011 Paris, France",https://www.cafemareva.com/,33 1 43 38 64 57,https://www.facebook.com/cafemareva/,info@cafemareva.com,48.8691412,2.3666096,https://goo.gl/maps/PuAHGuwrX8jnYwdbA
Cafe Umami,Cafe,"2224 MacArthur Blvd, Oakland, CA 94602, USA",,61 3 6442 4799,https://www.facebook.com/cafeumami60/,,37.800379,-122.2176637,https://goo.gl/maps/HXqqH3sTRAbpBL3K8
Caffe Strada,Cafe,"2300 College Ave, Berkeley, CA 94704, USA",http://www.caffestrada.com.au,61 3 9497 4875,https://www.facebook.com/Caffe-Strada-150125135026435/,info@caffestrada.com.au,37.869146,-122.2570477,https://goo.gl/maps/nhoyTWFdMmjS92yi6
Cal Marius,Restaurant,"Carrer de Mallorca, 449, 08013 Barcelona, Spain",http://www.calmarius.es,34 674 91 06 70,https://www.facebook.com/calmarius452/,info@calmarius.es,41.4058854,2.1761814,https://goo.gl/maps/2kpMz6QjF2ff7iXJ9
Capitol Cider,Restaurant,"818 E Pike St, Seattle, WA 98122, USA",http://capitolcider.com,1 206-397-3564,https://www.facebook.com/CapitolCider,info@capitolcider.com,47.614212,-122.3233237,https://goo.gl/maps/fNef7Ra6jSuB37Pp8
Carmine,Bakery,"Corso Antonio Gramsci 22
",,39 393 102 2864,https://www.facebook.com/carminebiorganic/?ref=nf,,,,
Cav?,Cafe/Restaurant,515 Sylvania Avenue,https://www.cavepaleoeatery.com/,1 732-776-8556,,cavepaleoeatery@gmail.com,40.192541,-74.0234105,https://goo.gl/maps/C5FcimikXC2NDhRX8
Celiac Specialties Gluten Free Bakery,Bakery,"1928 Star-Batt Dr D, Rochester Hills, MI 48309, USA",http://www.baking-glutenfree.com/,1 248-860-0680,https://www.facebook.com/CeliacSpecialties/,priscilla@baking-glutenfree.com,42.648343,-83.1710417,https://goo.gl/maps/7KTua8TmYKbjH5HH9
Celicioso ,Bakery,"Calle del Barquillo, 19, 28004 Madrid, Spain",http://www.celicioso.com/default.aspx,34 915 31 88 87,,,38.4418088,-6.5543703,https://goo.gl/maps/wMzbjEFjpicwdPTG8
Celicioso Costa Rica,Bakery,"San Jos? Province, San Rafael de Escaz?, Costa Rica",http://www.celiciosocr.com,506 8420 5800,https://www.facebook.com/celiciosocr/,,9.9369171,-84.1537213,https://goo.gl/maps/gAhrfaGHD3XAtcLS9
Likuram,Bakery,"1 Pte 1372, Vi?a del Mar, Regi?n de Valpara?so, Chile",,56 32 346 4777,https://www.facebook.com/likuramglutenfree/,,-33.0082594,-71.5519447,https://goo.gl/maps/G6D3dXwnUpzmQAA49
Celifamily Gluten Free,Bakery,"Coronel Santiago, Bueras 67, Rancagua, Regi?n del Libertador Gral. Bernardo O?Higgins, Chile",http://www.celifamilyglutenfree.cl,56 9 5284 3115,https://www.facebook.com/celifamilyglutenfree/,,-34.1659393,-70.7462827,https://goo.gl/maps/cUEZk4XdUyoyMLjj7
Chaia ,Restaurant,"3207 Grace St NW, Washington, DC 20007, USA",https://www.chaiadc.com/,1 202-333-5222,https://www.facebook.com/ChaiaDCtacos,info@chaiadc.com,38.9041121,-77.0654492,https://goo.gl/maps/CrDV2vro7sVee84d8
Chambelland,Bakery,"14 Rue Ternaux, 75011 Paris, France",http://chambelland.com/,33 1 43 55 07 30,https://www.facebook.com/boulangeriechambelland?fref=ts,contact@chambelland.com,48.8644193,2.3711935,https://goo.gl/maps/wMK5hcKMpP5Hkvy19
Chambelland,Bakery,"Avenue de l'Universit? 42, 1050 Ixelles, Belgium",http://chambelland.com/,32 2 751 48 44,https://www.facebook.com/boulangeriechambelland?fref=ts,contact@chambelland.com,50.8146874,4.3855966,https://goo.gl/maps/TWremqkkoNET2VPR6
Cherbourg Bakery,Bakery,"541 S Drexel Ave, Bexley, OH 43209, USA",http://www.cherbourgbakery.com/,1 614-725-4560 ,https://www.facebook.com/Cherbourg-Bakery-171087912917457/,info@cherbourgbakery.com,39.9576705,-82.9404605,https://goo.gl/maps/Cd35Szrc63YbXAak7
Chiang Mai Gluten-free CakeAway,Bakery/Cafe,"19 Wua Lai Rd, Tambon Hai Ya, Amphoe Mueang Chiang Mai, Chang Wat Chiang Mai 50100, Thailand",,66 93 291 9361,https://www.facebook.com/Chiang-Mai-Gluten-free-CakeAway-Pink-House-Garden-372551956286935/,,18.7797344,98.9812949,https://goo.gl/maps/DkFP9D6o99uqSRk2A
Chingon ,Restaurant,413 Swan St,http://www.chingon.com.au,61 3 9429 5695,https://www.facebook.com/pages/Ching?n-Cantina-Y-Taqueria/261503560624672,bookings@chingon.com.au,,,
Choice Healthy Foods,Bakery,"7/F BT Centre
23 Wong Chuk Hang Rd",,852 2345 8370,https://www.facebook.com/choicehealthyfoods/,,,,
Cloud 9 Specialty Bakery,Bakery,"1025 Royal Ave, New Westminster, BC V3M 1K3, Canada",http://www.cloud9specialtybakery.com,1 604-249-5008,https://www.facebook.com/Cloud9SpecialtyBakery/,info@cloud9specialtybakery.com,49.2085119,-122.9615443,https://goo.gl/maps/ezZY8w2GmYkcST4c8
Cocoabeans Bakeshop,Cafe/Bakery,"774 Corydon Ave, Winnipeg, MB R3M 0Y1, Canada",http://www.cocoabeansbakeshop.com,1 204-691-6046,,orders@cocoabeansbakeshop.com,49.8702382,-97.1564216,https://goo.gl/maps/Kg1XDX543aSGtnrJA
Cojzla,Cafe/Restaurant,"1000 Ljubljana, Slovenia",,386 31 773 434,https://www.facebook.com/Cojzla/,,46.0639686,14.5424604,https://goo.gl/maps/9hyoJiikygr7P5TdA
Colors,Restaurant,"178 Stanton St, New York, NY 10002, USA",http://www.colorsrestaurantnyc.com/,1 212-777-8443,,,40.7202021,-73.9861573,https://goo.gl/maps/r1h7pSEoegNTktSJA
Confluence Kombucha,Cafe,"4507 Manchester Ave, St. Louis, MO 63110, USA",http://www.confluencekombucha.com,1 314-833-3059,https://www.facebook.com/confluencekombucha,,38.6264813,-90.2641376,https://goo.gl/maps/xXvWjHwvV2yqGNaA9
Cookie St?fanie,Bakery,"272 St Jacques St, Montreal, QC H2Y 1N1, Canada",http://cookiestefanie.com,1 438-380-1560,https://www.facebook.com/CookieStefanieSG/,,45.5029821,-73.5610823,https://goo.gl/maps/hQy71PRbN4NdMV967
Cookies and Scream,Bakery,"130 Holloway Rd, Highbury East, London N7 8JE, UK",http://www.cookiesandscream.com/,44 7778 691519,,chick@cookiesandscream.com,51.5505246,-0.1114144,https://goo.gl/maps/wXX9fhzUWzfWf3GY7
Cooking Time Gluten Free,Bakery,"Laprida 1954, C1425EKT CABA, Argentina",https://www.facebook.com/CookingTimeBsAs/,54 11 4807-1272,https://www.facebook.com/CookingTimeBsAs/,,-34.5880621,-58.4027068,https://goo.gl/maps/oBUrWEeuK74NgkVy9
Coquette's Bistro & Bakery,Restaurant,"616 S Tejon St, Colorado Springs, CO 80903, USA",http://coquettesbistro.com/,1 719-685-2420,https://www.facebook.com/CoquettesBistro/,,38.8248679,-104.8264249,https://goo.gl/maps/eSBVSRbefV7rtKEr8
Corbett Fish House,Restaurant,"Lacamas Crossing, 19206 SE 1st St, Camas, WA 98607, USA",http://www.corbettfishhouse.com/,1 360-258-1609,https://www.facebook.com/corbettfishhouse/,mediam@corbettfishhouse.com,45.5512298,-122.7162656,https://goo.gl/maps/TqLG5kTh5pRJwBzq8
Corbett Fish House,Restaurant,"4343 SE Hawthorne Blvd, Portland, OR 97215, USA",http://www.corbettfishhouse.com/,1 503-548-4434,https://www.facebook.com/corbettfishhouse/,mediam@corbettfishhouse.com,45.5510586,-122.7162662,https://goo.gl/maps/Kw5n2GBYkX7Y2xbM9
Corbett Fish House,Restaurant,"5901 SW Corbett Ave, Portland, OR 97239, USA",http://www.corbettfishhouse.com/,1 503-246-4434,https://www.facebook.com/corbettfishhouse/,mediam@corbettfishhouse.com,45.5508874,-122.7162669,https://goo.gl/maps/tfjgbkoJDYWWrhyNA
Corbin's Confections,Bakery,"18 E Main St, Salem, VA 24153, USA",,1 540-404-0300,https://www.facebook.com/Corbinsconfections/,,37.2926812,-80.0602141,https://goo.gl/maps/yJh7tRdkhTQkj98b6
Cosme,Restaurant,"35 E 21st St, New York, NY 10010, USA",http://www.cosmenyc.com/,1 212-913-9659,,,40.7395952,-73.9905451,https://goo.gl/maps/XHxQkPBdGXg6xQTA9
Cultured Caveman,Food Truck,,http://culturedcavemanpdx.com/,,https://www.facebook.com/CulturedCavemanPDX/,CulturedCavemanPDX@gmail.com,,,
Cultured Caveman,Restaurant,"8233 N Denver Ave, Portland, OR 97217, USA",http://culturedcavemanpdx.com/,1 971-254-4948,https://www.facebook.com/CulturedCavemanPDX/,CulturedCavemanPDX@gmail.com,45.582923,-122.6892558,https://goo.gl/maps/9g2fmbFNQjKHqmEX6
Culver City Salads,Food Truck,,http://www.culvercitysalads.com,1 604-306-0383,,info@culvercitysalads.com,,,
Cycle Bistro,Cafe,"Unit B6, Dubai Autodrome Grandstand, Dubai Motor City - Dubai - United Arab Emirates",http://thecyclebistro.com/,971 4 425 3000,https://www.facebook.com/thecyclebistro/,frane@thecyclehub.com,25.046651,55.2365023,https://goo.gl/maps/JPGTtm8Jg5TBPUEv8
Dana's Bakery,Bakery,"1011 3rd Ave, New York, NY 10065, USA",https://www.danasbakery.com/,1 800-477-1816,,info@danasbakery.com,40.8156456,-74.0794067,https://goo.gl/maps/NSFcbqrwDDrxFx2V7
De Healthy Baker,Bakery,"3848 Main St, Niagara Falls, ON L2G 6B2, Canada",http://www.dehealthybaker.ca,1 905-295-6500,,dehealthybaker@gmail.com,43.0572236,-79.0544706,https://goo.gl/maps/VDmXJAiHPU2jwxq27
Deanna's Gluten Free,Bakery,"2250 S Escondido Blvd, Escondido, CA 92025, USA",https://www.deannasglutenfree.com/,1 760-432-6100,https://www.facebook.com/Deannas-Gluten-Free-Bakery-87470539141/,Info@DeannasGF.com,33.0943491,-117.0732763,https://goo.gl/maps/F9QpnYpZnm3KZhgt5
Deby's GF,Bakery,"2369 S Trenton Way, Denver, CO 80231, USA",https://debysglutenfree.com/,1 303-283-4060,,info@debysglutenfree.com,39.6735452,-104.8995135,https://goo.gl/maps/USLwt2zgBNx99wxE6
Dedicated,Bakery,"4500 E Speedway Blvd #41, Tucson, AZ 85712, USA",https://www.dedicatedgf.com,1 520-209-2872,,admin@dedicatedgf.com,32.2358096,-110.8988305,https://goo.gl/maps/uTs8NMpCuARHytHn9
Dee's One Smart Cookie,Bakery,"103 New London Turnpike, Glastonbury, CT 06033, USA",http://www.deesonesmartcookie.com/,1 860-633-8000,https://www.facebook.com/Dees-One-Smart-Cookie-Allergen-Free-Bakery-140459231851/,dee@deesonesmartcookie.com,41.714069,-72.6070836,https://goo.gl/maps/5inKWfyBB9AZPjoY9
Defloured,Bakery,"1477 W Balmoral Ave, Chicago, IL 60640, USA",http://deflouredbakery.com/,1 773-234-5733,https://www.facebook.com/Defloured/,deflouredbakery.com,41.9796972,-87.670029,https://goo.gl/maps/mzBRGzRHeRezFx3N6
Delhicious ,Restaurant,"91 Upper Heidelberg Rd, Ivanhoe VIC 3079, Australia",http://delhiciouscuisine.com.au,61 3 9499 1053,https://www.facebook.com/Delhicious-344349635939646/?hc_ref=PAGES_TIMELINE&fref=nf,info@delhiciouscuisine.com.au,-37.76946,145.0391083,https://goo.gl/maps/VQtZZgAwQZUxS4dN6
Delish Gluten Free Bakery,Bakery,"1730 Coast Meridian Rd #203, Port Coquitlam, BC V3C 6R8, Canada",http://delishglutenfree.com,1 604-945-9994,,info@delishglutenfree.com,49.247153,-122.7577746,https://goo.gl/maps/z2fN5hJbNmrgCRxZ8
Infiniti C,Bakery,"Hong Kong, Kennedy Town, Forbes St, 40?6??????",,852 3460 4996,https://www.facebook.com/Infinitichk/,,22.2815213,114.1327535,https://goo.gl/maps/YQY68tBoZEL3LK4Y9
Dempsey Bakery,Bakery,"323 S Cross St, Little Rock, AR 72201, USA",http://www.dempseybakery.com/,1 501-375-2257,https://www.facebook.com/Dempsey-Bakery-211651025519197/,,34.7471556,-92.2860103,https://goo.gl/maps/zzPsieKjF6aLdRgV9
Different Blend Bakery,Bakery,"3403 Carman Rd, Schenectady, NY 12303, USA",http://www.differentblendbakery.com,1 518-355-3008,https://www.facebook.com/DifferentBlend,,42.7485479,-73.943641,https://goo.gl/maps/5srtqbaSh2GMLqJw6
Donna Marie's Gluten Free Bakery,Bakery,"1694 Penfield Rd, Rochester, NY 14625, USA",http://www.donnamariesbakery.com/,1 585-397-0649,https://www.facebook.com/RochestersBestGF/,Info@DonnaMariesBakery.com,43.1583612,-77.6395211,https://goo.gl/maps/athxUujVdHQRhp4Y9
Drop Retaurant,Cafe/Restaurant,"Budapest, Haj?s u. 27, 1065 Hungary",http://droprestaurant.com/hu,36 1 235 0468,https://www.facebook.com/droprestaurant?fref=ts,,47.5045021,19.0548589,https://goo.gl/maps/PQLt1vRs8pCaRwTNA
Duke's Bakery,Bakery,"162 Columbia St, Fall River, MA 02721, USA",,1 508-837-0624,https://www.facebook.com/dukesbakery/,,41.6699398,-71.1260127,https://goo.gl/maps/k1m5wrfEv2Kw2iF96
Eat Performance,Cafe,"Buckower Chaussee 36-42, 12277 Berlin, Germany",https://eat-performance.com,49 30 4432640,https://www.facebook.com/eatperformance/,info@eat-performance.com,52.4124008,13.3862495,https://goo.gl/maps/uPS1fWvNu9oyWPBS9
Eats and Treats,Cafe/Restaurant,"1644 Main St, Philomath, OR 97370, USA",http://eats-treats.com/,1 541-307-0225,,mchenry.lynda@gmail.com,44.5398075,-123.3643366,https://goo.gl/maps/ZvFtLZDk5MZTZexBA
Ecru,Restaurant,"Via Acciaioli, 13, 00186 Roma RM, Italy",http://www.ecrurawfood.it/,39 393 102 2864,https://www.facebook.com/ecrurawfood/?fref=ts,,41.8999273,12.4624136,https://goo.gl/maps/dS1hZ1aumAyLUw936
El Arepazo,Restaurant,"181 Augusta Ave, Toronto, ON M5T 2L4, Canada",http://arepazo.ca/,1 647-729-5290,https://www.facebook.com/arepazoTO,info@arepazo.ca,43.6533779,-79.4034342,https://goo.gl/maps/u54SPiD5NSZYs6EV7
Elegant Elephant Baking Co.,Food Truck,"120 Shelton Mcmurphey Blvd Suite 150, Eugene, OR 97401, USA",http://www.elegantelephantbaking.com/,1 541-556-7540,https://www.facebook.com/ElegantElephantBakingCo/?fref=ts,elegantelephantbaking@gmail.com,"44.0558715,",-123.0958015,https://goo.gl/maps/7eaq7EP15FQospSZ8
Elemental Eats,Food Truck,"2 Mana Esplanade
",http://elementaleats.co.nz,,https://www.facebook.com/ElementalEats/posts/1018686268217260:0,elementaleats@gmail.com,,,
Elisa's Love Bites,Online,,https://elisaslovebites.com/,,https://www.facebook.com/elisaslovebites,info@elisaslovebites.com,40.3546637,-82.9276697,https://goo.gl/maps/REGknJWPmunA5gKJ6
Erik's Fish and Chips,Food Truck,"13 Earl St, Queenstown 9300, New Zealand",http://www.eriksfishandchips.co.nz,64 03-441-3474,https://www.facebook.com/eriksfishandchips/,anna@eriksfishandchips.co.nz ,-45.0332662,168.6599254,https://goo.gl/maps/XFZeoYPM9UMXSAv48
Erik's Fish and Chips,Food Truck,"13 Earl St, Queenstown 9300, New Zealand",http://www.eriksfishandchips.co.nz,64 03-441-3474,https://www.facebook.com/eriksfishandchips/,anna@eriksfishandchips.co.nz ,-45.0332662,168.6599254,https://goo.gl/maps/XFZeoYPM9UMXSAv48
Erin McKenna?s Bakery,Bakery,"248 Broome St, New York, NY 10002, USA",https://www.erinmckennasbakery.com/,1 212-677-5047,https://www.facebook.com/erinmckennasbakery,info@erinmckennasbakery.com,33.192621,-114.3013718,https://goo.gl/maps/wrV4VHdGBEvZPYVj8
Erin McKenna?s Bakery,Bakery,"1642 East Buena Vista Drive B, Orlando, FL 32830, USA",https://www.erinmckennasbakery.com/,1 855-462-2292,https://www.facebook.com/erinmckennasbakery,info@erinmckennasbakery.com,28.3714588,-81.5197079,https://goo.gl/maps/qQxod6LxKLkPgiA78
Erin McKenna?s Bakery,Bakery,"236 N Larchmont Blvd, Los Angeles, CA 90004, USA",https://www.erinmckennasbakery.com/,1 855-462-2292,https://www.facebook.com/erinmckennasbakery,info@erinmckennasbakery.com,34.0757426,-118.3255876,https://goo.gl/maps/UQ3ZPSx4FiSkS7NM9
Ethel's Baking Company,Bakery,"22314 Harper Ave, St Clair Shores, MI 48080, USA",http://ethelsedibles.net/,1 586-552-5110,https://www.facebook.com/EthelsEdiblesGF,info@ethelsedibles.net,42.4602642,-82.9121762,https://goo.gl/maps/QS6naf7gv5rMmX2ZA
Everybody Eats,Bakery,"294 3rd Ave, Brooklyn, NY 11215, USA",http://everybodyeats-inc.com/,1 718-369-7444,https://www.facebook.com/Everybody-Eats-INC-1029513900450798/?ref=aymt_homepage_panel,info@everybodyeats-inc.com,40.677032,-73.9887687,https://goo.gl/maps/6ZnKw7J7rn8D1Aak9
Ezra's Englighted Cafe,Cafe,"6516 Ferguson St, Indianapolis, IN 46220, USA",https://ezrasenlightenedcafe.com/,1 317-255-3972,https://www.facebook.com/EzrasEnlightenedCafe,info@ezrasenlightenedcafe.com,39.8741803,",-86.1460229",https://goo.gl/maps/whPFnkJJw12GPLpq9
Fatamorgana ,Ice Cream/Gelato,"Via Adda, 103 - 00198
",http://www.gelateriafatamorgana.com/web/,39 06 8880 5474,https://www.facebook.com/Fatamorgana.Gelaterie/,info@fmgelato.com,,,
Fatamorgana ,Ice Cream/Gelato,"12021 Ventura Blvd
",http://www.gelateriafatamorgana.com/web/,1 818-606-0273,https://www.facebook.com/Fatamorgana.Gelaterie/,,,,
Feed Me Primal,Cafe,"Unit 31 Boxpark Croydon, 99 George Street, Croydon CR0 1LD, UK",https://www.feedmeprimal.co.uk,,https://www.facebook.com/feedmeprimal/,info@feedmeprimal.co.uk,51.3749558,-0.0958519,https://goo.gl/maps/2W7QdG5ZVP4nKX8D6
Feel Good Guru,Catering/Meal Delivery,135 Tecumseth Street,http://feelgoodguru.com/,1 647-748-5800,,moira@feelgoodguru.com,,,
Firin,Bakery,,https://www.firin.co/,,https://www.facebook.com/firinbakery,contact@firin.co,,,
Firin,Bakery,"Hawalli, Tunis Street Block 3
Building 213/1, Store 9",https://www.firin.co/,965 22666100,https://www.facebook.com/firinbakery,contact@firin.co,,,
Fita Crepe Bar,Restaurant,"R. Itupava, 1670 - Alto da XV, Curitiba - PR, 80040-000, Brazil",https://www.fitacrepebar.com.br/,55 41 3779 0963,,recrutamento@fitacrepebar.com.br,-25.4233548,-49.2461254,https://goo.gl/maps/PdTqANJYE2bcFHcK7
Five,Restaurant,"69 Rue Moncey, 69003 Lyon, France",http://www.restaurantfive.com/,33 9 54 11 05 76,https://www.facebook.com/fiverestaurants/,,45.7599853,4.8459011,https://goo.gl/maps/FhTTYL9A4tDubREa7
Five on Black,Cafe,"325 N Higgins Ave, Missoula, MT 59802, USA",http://www.fiveonblack.com,1 406-926-1860,https://www.facebook.com/FiveonBlack/,tom@fiveonblack.com,"46.8728644,",-113.9960354,https://goo.gl/maps/Y4sXMyEpGhNuuyUF6
Five on Black,Cafe,"3850 S Reserve St #140, Missoula, MT 59801, USA",http://www.fiveonblack.com,1 406-926-1305,https://www.facebook.com/FiveonBlack/,tom@fiveonblack.com,46.8352893,-114.0413474,https://goo.gl/maps/hBSCx92chVj4UTdw6
Five on Black,Cafe,"242 E Main St, Bozeman, MT 59715, USA",http://www.fiveonblack.com,1 406-551-2692,https://www.facebook.com/FiveonBlack/,tom@fiveonblack.com,45.6791061,-111.0351422,https://goo.gl/maps/Ug9PqqpVhLHeqhcw5
Five on Black,Cafe,"1617 California St, Denver, CO 80202, USA",http://www.fiveonblack.com,1 720-904-5505,https://www.facebook.com/FiveonBlack/,tom@fiveonblack.com,39.7455538,-104.9941093,https://goo.gl/maps/huRyc6NgAhUuBoFt9
Five on Black,Cafe,"29TH STREET MALL, 1805 29th St #1138, Boulder, CO 80301, United States",http://www.fiveonblack.com,1 303-402-5000,https://www.facebook.com/FiveonBlack/,tom@fiveonblack.com,40.0186307,-105.2587553,https://goo.gl/maps/WvkxGVY2anDhkm1q7
Flour Chylde Gluten-Free Bakery,Bakery,702 San Anselmo Ave,http://flourchylde.com,1 415-453-3100,,info@flourchylde.com,,,https://goo.gl/maps/cs2rg913oYA7VMey5
Flour Chylde Gluten-Free Bakery,Bakery,"850 Grant Ave, Novato, CA 94945, USA",http://flourchylde.com,1 415-893-7700,,info@flourchylde.com,38.1073962,-122.5698052,https://goo.gl/maps/cs2rg913oYA7VMey5
Flour Craft Bakery,Bakery,"129 Miller Ave #300, Mill Valley, CA 94941, USA",https://flourcraftbakery.com/,1 415-384-8244,https://www.facebook.com/flourcraft,info@flourcraftbakery.com,37.939994,-122.5887827,https://goo.gl/maps/f31Gk6nQ2VBbM4wY6
Flying Apron,Bakery,"3510 Fremont Ave N, Seattle, WA 98103, USA",http://www.flyingapron.com/,1 206-442-1115,,info@flyingapron.com,47.6509558,-122.3518441,https://goo.gl/maps/oJndP9ynUcGYbYtaA
Flying Apron,Bakery,"16541 Redmond Way, Ste E
",http://www.flyingapron.com/,1 206-442-1115,,info@flyingapron.com,,,
Food for Good Thought,Bakery,"4185 N High St, Columbus, OH 43214, USA",https://www.foodforgoodthought.com/gluten-free-bakery/,1 614-447-0424,,sarah@foodforgoodthought.com,40.0473541,-83.0226507,https://goo.gl/maps/U8dYBu72DCTJjfRb7
Foucade,Bakery/Cafe,17 rue Duphot,http://www.foucadeparis.com/,33 1 42 36 11 81,https://www.facebook.com/foucadeparis,afsaneh@linstantc.fr,,,
Fox in the Box,Cafe/Restaurant,"169 Martin St, Brighton VIC 3186, Australia",http://www.foxinthebox.com.au,Phone: +61 3 9596 0133,https://www.facebook.com/eatingoutGF?ref=tn_tnmn,bookings@foxinthebox.com.au,-37.8970336,145.0031575,https://goo.gl/maps/kAhgoGcn6iZHC4s88
Free - a Glut?nmentes P?ks?g F?ny utca,Bakery,"Budapest, F?ny u. 16, 1024 Hungary",,36 30 500 7994,https://www.facebook.com/freepekseg?fref=ts,,47.5101542,19.0234549,https://goo.gl/maps/QiW3tjN73VNifZqF7
Fresh First,Cafe,"1637 SE 17th St, Fort Lauderdale, FL 33316, USA",http://www.freshfirst.com,1 954-763-3344,,eat@freshfirst.com,26.101774,-80.1276647,https://goo.gl/maps/FpCgVthic4np1z9Y9
Fresh Kitchen,Cafe,"1350 S Howard Ave, Tampa, FL 33606, USA",http://www.eatfreshkitchen.com,1 813-833-2201,https://www.facebook.com/eatfk/,,27.9292434,",-82.4852678",https://goo.gl/maps/fFHkMAXaFxSKQ38Z8
Fresh Kitchen,Cafe,"4447 4th St N #2, St. Petersburg, FL 33704, USA",http://www.eatfreshkitchen.com,1 727-612-3600,https://www.facebook.com/eatfk/,,27.8125784,-82.6403846,https://goo.gl/maps/RZ3AtiT596pzaaPc8
Fresh Kitchen,Cafe,"8491 Cooper Creek Blvd #101, Bradenton, FL 34201, USA",http://www.eatfreshkitchen.com,1 941-702-0614,https://www.facebook.com/eatfk/,,27.3909868,-82.4565792,https://goo.gl/maps/Qy7kb2VvX2KZWPz29
Fresh Kitchen,Cafe,851 North Alafaya Trail,http://www.eatfreshkitchen.com,1 561-657-1140,https://www.facebook.com/eatfk/,,,,
Fresh Kitchen,Cafe,"5550 N Military Trl, Boca Raton, FL 33496, USA",http://www.eatfreshkitchen.com,1 561-657-1140,https://www.facebook.com/eatfk/,,26.4000903,-80.1226214,https://goo.gl/maps/6Dmqnj3wvvJA6k4b6
Fresh Levant Bistro,Cafe,"8450 Honeycutt Rd Suite 106, Raleigh, NC 27615, USA",http://freshlevant.com,1 984-200-3999,https://www.facebook.com/FreshLevant/,,35.894986,-78.6242426,https://goo.gl/maps/dkZBvHevPrvocsb5A
Fresh Thymes,Restaurant,32500 30th St Unit 101,https://freshthymeseatery.com,1 303-955-7988,https://www.facebook.com/FreshThymesEatery/,help@freshthymeseatery.com,,,
Friendly Food,Cafe,"?migielska 13A, 60-102
",,48 665 450 858,https://www.facebook.com/Friendly-Food-204508862955624/,,,,
Fruits & Roots,Cafe,6539 South Las Vegas Blvd. #110,http://fruitsnroots.com/,1 702-605-5922,,,,,
Fruits & Roots,Cafe,"5020 Blue Diamond Rd Suite A, Las Vegas, NV 89139, USA",http://fruitsnroots.com/,1 702-790-1014,,,31.3136692,-106.7792659,https://goo.gl/maps/NMuAvVGEjACoUPux7
Fruits & Roots,Cafe,7885 W Sunset Rd #180,http://fruitsnroots.com/,1 702-202-0922,,,,,
GF Edinburgh,Cafe,"37 Dalry Rd, Edinburgh EH11 2BU, UK",,44 7515 342420,https://www.facebook.com/gfgoodfoodglutenfree/,,55.9449073,-3.2197559,https://goo.gl/maps/7NtbLFdnZezpayGv8
Girls Gone Vegan,Online,,,1 504-510-3590,https://www.facebook.com/girlsgonevegannola,girlsgonevegannola@gmail.com,,,
Glu Free Bakery,Bakery,"Via Curtatone, 6, 20122 Milano MI, Italy",http://www.glufreebakery.it/it/,39 02 5401 9723,https://www.facebook.com/GlufreeBakery/,info@glufreebakery.it,45.4578914,9.2022351,https://goo.gl/maps/khBKdLbZm7PYCZew8
Glu Free Bakery,Bakery,"Viale Gian Galeazzo 6
",http://www.glufreebakery.it/it/,39 02 3676 7679,https://www.facebook.com/GlufreeBakery/,info@glufreebakery.it,,,
Glulu,Bakery,"Debrecen, B?sz?rm?nyi ?t 138, 4032 Hungary",http://www.glulu.hu/,36-70-381-6219,https://www.facebook.com/glulupekmanufaktura,,47.5506987,21.6072532,https://goo.gl/maps/oDHpagYib3SRyPJd8
Glunos,Bakery,"300 m Oeste de Taco Bell de San
Pe- dro, contiguo a la Embajada de Colombia
Barrio Dent",https://www.glunos.com,506 8825 6505,https://www.facebook.com/glunos/,info@glunos.com?,,,
Gluten Free 4 U,Bakery,"243 Dorset Rd, Boronia VIC 3155, Australia",https://glutenfree4u.com.au/,61 03 9761 1553,https://www.facebook.com/glutenfree4u,info@glutenfree4u.com.au,-32.5091451,139.6962169,https://goo.gl/maps/XpGLXFT7L874Vig3A
Gluten Free 4 U,Bakery,"4/49 Beach St, Frankston VIC 3199, Australia",https://glutenfree4u.com.au/,61 03 8762 8100,https://www.facebook.com/glutenfree4u,info@glutenfree4u.com.au,-38.141923,145.1271963,https://goo.gl/maps/g9iabXUX3AjewJLz7
Gluten Free 4 U,Bakery,"1345 Burke Rd, Kew VIC 3101, Australia",https://glutenfree4u.com.au/,61 03 9817 6981,https://www.facebook.com/glutenfree4u,info@glutenfree4u.com.au,-37.80136,145.0600913,https://goo.gl/maps/QuTqB7ZjEgDiT1pUA
Gluten Free 4 U,Bakery,"5/1-3 Bignell Rd, Moorabbin VIC 3189, Australia",https://glutenfree4u.com.au/,61 03 9555 5175,https://www.facebook.com/glutenfree4u,info@glutenfree4u.com.au,-37.942321,145.0651223,https://goo.gl/maps/ifCt4ohB39m1kjLi9
Gluten Free 4 U,Bakery,"110 Pakington St, Geelong West VIC 3218, Australia",https://glutenfree4u.com.au/,61 03 5229 9297,https://www.facebook.com/glutenfree4u,info@glutenfree4u.com.au,-38.1384099,144.3467666,https://goo.gl/maps/ySXTffGEyCGt16U99
Gluten Free 4 U,Bakery,"2/3 Bishop Street, Woolner",https://glutenfree4u.com.au/,61 0444 598 570,https://www.facebook.com/glutenfree4u,info@glutenfree4u.com.au,,,
Gluten Free 4 U,Bakery,"shop-1/22 Carrara St, Mount Gravatt East QLD 4122, Australia",https://glutenfree4u.com.au/,61 07 3849 2713,https://www.facebook.com/glutenfree4u,info@glutenfree4u.com.au,-27.5241316,153.0788508,https://goo.gl/maps/QopfBSdtdY3f887H8
Vin-Chet Gluten Free Baked Goods,Bakery,"2178 Kensington Ave, Snyder, NY 14226, USA",https://vinchet.com/,1 716-839-0871,,info@VinChet.com,"42.9526769,",-78.7813997,https://goo.gl/maps/uZRyEjkB6d5zbzJA9
Gluten Free Bakery Girl,Bakery,"116 N Talbot St, St Michaels, MD 21663, USA",http://www.glutenfreebakerygirl.com/,1 801-792-3700,https://www.facebook.com/glutenfreebakerygirl/,glutenfreebakerygirl@gmail.com,38.7872454,-76.2270931,https://goo.gl/maps/pP7gQcSpzzGdZSpp6
Gluten free cafe littlebird,Cafe/Restaurant,"JP Building 3F, 1-1-20 Uehara 
",,81 3-3460-8282,https://www.facebook.com/cafe.littlebird/,gfree.littlebird@gmail.com,,,
Gluten Free Creations,Bakery,"7607 E McDowell Rd, Scottsdale, AZ 85257, USA",http://www.glutenfreecreations.com/,1 480-990-2253,https://www.facebook.com/GlutenFreeCreations/,glutenfreeenews@cox.net; check email (bounced back?),33.46499,-111.9189237,https://goo.gl/maps/6YTqzxCKhCAF2jkG8
Gluten Free Gem,Bakery,"140 NE Broadway St, Portland, OR 97232, USA",http://www.glutenfreegem.com/,1 503-288-1508,https://www.facebook.com/glutenfreegem/,info@glutenfreegem.com,45.534919,-122.6660107,https://goo.gl/maps/TntTYonowYBpJ5BY7
Gluten Free Gloriously,Bakery,"1447, 267 Main Ave, Stirling, NJ 07980, United States",http://www.glutenfreegloriously.com/,1 908-647-7337,https://www.facebook.com/GlutenFreeGloriously/,,40.672188,-74.4968657,https://goo.gl/maps/bKF9UsTZMtBzrXNM6
Gluten Free Goat Bakery & Cafe,Bakery/Cafe,"4905 Penn Ave, Pittsburgh, PA 15224, USA",http://glutenfreegoat.com,1 412-362-1600,,contact@glutenfreegoat.com,40.4653948,-79.9471249,https://goo.gl/maps/oJY4YRrbkD2ud9Jo7
Gluten Free Me Bakery and Cafe,Bakery/Cafe,"748 Main St, Winchester, MA 01890, USA",http://glutenfreeme.s3-website-us-east-1.amazonaws.com/home,1 781-570-2060,https://www.facebook.com/Gluten-Free-Me-1985412885018774/,info@glutenfreemebakery.com,42.4577279,-71.1412687,https://goo.gl/maps/VEX7gctvLSAD1hTP6
Gluten Free Miracles,Bakery/Cafe,"145 Burt Rd, Lexington, KY 40503, USA",http://www.glutenfreemiracles.com,1 859-278-8888,https://www.facebook.com/GlutenFreeMiracles/,denise@glutenfreemiracles.com,38.0079948,-84.5215706,https://goo.gl/maps/JFk5hkav3Mjcy44U9
Gluten Free Sensations,Bakery,"53238 US-131, Three Rivers, MI 49093, USA",https://www.glutenfreesensations.com/,1 269-273-4090,https://www.facebook.com/gluten.free.sensations/,,42.0242783,-85.6385168,https://goo.gl/maps/rRv5NwN4fTRd4XXv9
Gluten Free Things,Bakery,"11651 W 64th Ave Suite A6, Arvada, CO 80004, USA",https://glutenfreethings.com,1 303-668-1663,,,39.8138621,-105.1326263,https://goo.gl/maps/hhKfYK8FEKQodMez8
GlutenZero,Bakery,"9500 S Eastern Ave #130, Las Vegas, NV 89123, USA",http://www.glutenzerobakery.com/,1 702-767-3408,,cris@glutenzerobakery.com,36.0163656,-115.1193125,https://goo.gl/maps/xH6XY9g6MPFn37vu8
Glutopia,Bakery,"41 Market Place, Kingston upon Thames KT1 1JQ, UK",http://www.glutopiabakery.com/,44 20 8974 5444,https://www.facebook.com/glutenguru/,hello@glutopiabakery.com,51.4090837,-0.3082717,https://goo.gl/maps/2TPQqAC7QGTyzkpk8
Gluuteny Bakery,Bakery,"1923 Murray Ave
",https://www.gluuteny.com,1 412-521-4890,https://www.facebook.com/gluuteny,orders@gluuteny.com,,,
Columbia Gorge Gluten Free,Bakery,740 E Steuben,https://columbiagorgeglutenfree.com,1 541-645-0570,https://www.facebook.com/GorgeGlutenFree/?ref=ts,info@gorgeglutenfree.com,,,
Gourmet Girls Gluten Free Bakery and Bistro,Bakery,"5845 N Oracle Rd
",http://www.gourmetgirlsglutenfree.com/,1 520-408-9000,https://www.facebook.com/GourmetGIrlsGlutenFree/,gourmet.girls@live.com   ,,,
Gout Gluten Free,Bakery,"Montevideo 1480
C1018 ACF",http://www.goutglutenfree.com.ar/,54 11 4811-3701,https://www.facebook.com/GOUT-GLUTEN-FREE-112817558735825/?fref=ts,,,,
Grams,Catering/Meal Delivery,16 Haymarket Terrace,http://www.gramsedinburgh.com/,44 131 337 3599,https://www.facebook.com/gramsedinburgh,,,,
Green Table,Cafe,"113 W de la Guerra St
",https://green-table.com/,1 805-770-7721,https://www.facebook.com/greentablesb/,,,,
Grezzo Raw Chocolate,Bakery,Via Urbana 130,https://grezzorawchocolate.com/,39 06 483443,,,,,
Guyot ,Restaurant,via Arnaldo da Brescia 3,http://www.tavernaguyot.com/,39 02 8723 7103,https://www.facebook.com/Guyot-105030999563856/?ref=hl,,,,
HaleLife Bakery,Bakery,3350 Ulmerton Rd. Suite 13,https://www.halelifebakery.com,1 727-265-3372,https://www.facebook.com/HaleLifeBakery/,contact@halelifebakery.com,,,
Hannah's Gluten Free Bakery,Bakery,"1830 Range Drive, Suite #102",http://www.hannahsglutenfreebakery.com/,1 469-708-9864,https://www.facebook.com/HannahsGlutenFreeBakery,,,,
Hannah's Gluten Free Bakery,Bakery,"1010 S. Pearl Expressway
(Dallas Farmers Market - Weekend Pop Up Shop)",http://www.hannahsglutenfreebakery.com/,1 469-708-9864,https://www.facebook.com/HannahsGlutenFreeBakery,,,,
Happy Bellies Bake Shop,Bakery,2107 N Richmond St,http://happybelliesbakeshop.com/,1 920-730-2253,https://www.facebook.com/happybellies,rebecca@happybelliesbakeshop.com,,,
Harlow,Restaurant,3632 SE Hawthorne Blvd,http://www.harlowpdx.com/,1 971-255-0138,https://www.facebook.com/HarlowRestaurant,info@harlowpdx.com,,,
Harmony Bakery,Bakery,3446 Chestnut Ave.,http://harmonybakery.net/,1 410-235-3870,https://www.facebook.com/Harmony-Bakery-930875086955009/,,,,
Haven on Earth Bakery,Bakery,10855 Double R Blvd,http://www.havenonearthbakery.com/,1 775-284-4200,https://www.facebook.com/havenonearthbakery,,,,
Hawk Hallow,Bakery,15101 Chandler Rd,https://sites.google.com/site/lansinghawkhollowsimplyfree/,1 517-641-4295,,simplyfree@hawkhollow.com,,,
Healthy Creations,Cafe,"376 N El Camino Real
",WWW.HEALTHYCREATIONSCAFE.COM,1 760-479-0500,,lily@healthycreationscafe.com,,,
Healthy Creations Inc.,Bakery,333 Dougall Square ,http://www.healthy-creations.com/,1 226-773-7881,https://www.facebook.com/HealthyCreationsInc/,bakery@healthy-creations.com,,,
Healthy Creations Inc.,Bakery,502 Springbank Drive,http://www.healthy-creations.com/,1 519-472-0111,https://www.facebook.com/HealthyCreationsInc/,bakery@healthy-creations.com,,,
Healthy Creations Inc.,Bakery,33 Amy Croft Dr.,http://www.healthy-creations.com/,1 519-735-0090,https://www.facebook.com/HealthyCreationsInc/,bakery@healthy-creations.com,,,
Heart of the City Bakery,Bakery,"235 N Main Ave
",http://www.heartofthecitybakery.com/,1 605-929-9542,https://www.facebook.com/heartofthecitybakery/,orders@heartofthecitysf.com,,,
Heaven Restaurant,Restaurant,#119 1013 17th Ave SW,https://heavengf.com,1 403-249-3037,https://www.facebook.com/heavenyyc/,heavenartisancuisine@gmail.com,,,
Hello Dinner,"Catering/Meal Delivery
",12646 West Fairview Avenue,http://www.hellodinner.com,1 208-412-0752,,,,,
Helmut Newcake,Bakery,"28 rue Vignon
",http://www.helmutnewcake.com/,33 9 81 31 28 31,https://www.facebook.com/Helmut-Newcake-255981944449043/,contact@helmutnewcake.com,,,
Hemsley + Hemsley,Cafe,400 Oxford Street (Bond St Tube),http://www.hemsleyandhemsley.com/,44 020 7318 3170,https://www.facebook.com/HemsleyHemsley,,,,
Hi-Vibe,Cafe,160 W Kinzie,http://www.hi-vibe.com/,1 312-724-8423,https://www.facebook.com/HiVibeChicago/,holler@hi-vibe.com,,,
Hillbilly Gluten Free Bake Shop and Icecream and Creamery,Bakery,153 N Main St,,1 336-719-1688,https://www.facebook.com/Hillbilly-Gluten-Free-Bake-Shop-and-Creamery-1466236020290279/,,,,
Honesto Gluten Free,Bakery,"R. Estados Unidos, 43",http://www.honestoglutenfree.com/,55 31 3267 2423,,vendas@honestoglutenfree.com,,,
Honey Hi,Cafe,1620 W Sunset Blvd,http://honeyhi.co,1 213-221-7810,,hi@honeyhi.co,,,
House of Manchester,Restaurant,2256 Losee Rd. Suite E,http://houseofmanchester.com/,1 702-900-4466,,BlueMahoeLV@gmail.com,,,
Hu Kitchen,Cafe/Restaurant,78 5th Ave,https://hukitchen.com/,1 917-962-0375,https://www.facebook.com/HuKitchen,,,,
I Heart Muffins Bakery,Bakery,"181 W. Harwood Rd.
",http://www.iheartmuffinsbakery.com/,1 817-280-0533,https://www.facebook.com/IHeartMuffinsBakery/,IHeartMuffinsBakery@yahoo.com,,,
I Love My GFF,Food Truck,check website,http://www.ilovemygff.com,,https://www.facebook.com/ilovemygff/,andrea@ilovemygff.com,,,
Il Trifoglio,Restaurant,"Via Piano, 24",,39 081 879 2138,https://www.facebook.com/Ristorante-Pizzeria-IL-TRIFOGLIO-114464765269790/?fref=ts,,,,
Inday Restaurant,Restaurant,1133 Broadway,http://indaynyc.com,1 917-521-5012,https://www.facebook.com/indaynyc/,,,,
Invita,Bakery/Cafe,"18 rue d?Aubuisson
",https://www.invitafreshfood.com/accueil,33 5 34 66 86 57,https://www.facebook.com/Invitafreshfood/,,,,
Isabella Glutenfreie P?tisserie,Bakery,Arnulfstraˇe 4,https://www.isabella-patisserie.de,49 0211 95599414,https://www.facebook.com/isabella.glutenfreie.patisserie/,,,,
Isaura Bakery,Bakery,204 Diamond Bridge Ave,http://www.ibglutenfree.com/,1 973-304 4500,,,,,
Island Gluten Free Bakery,Bakery,1880 Stickney Point Rd,http://www.islandgfbakery.com/,1 941-923-0200,https://www.facebook.com/pages/Stellar-Gluten-Free/174859092669778,islandgfbakery@gmail.com,,,
Italia In Tavola Glutenfree,Restaurant,Chauss?e de Waterloo 790,,32 486 06 38 57,https://www.facebook.com/ItaliaInTavolaGlutenFree,,,,
Izzi B's,Bakery,22 Knight Street,http://www.ibcakes.com,1 203-810-4378,,ordering@ibcakes.com,,,
Jansana,Bakery,"Balmes, 106",http://www.glutenfree.cat/,34 931 70 07 14,https://www.facebook.com/PastisseriaJansana/,,,,
Jadon Foods,Bakery,"4343 N. Rancho Dr, Suite 120",http://www.jadonfoods.com/,1 702-395-0249,,jadonfoods@jadonfoods.com,,,
Jewel's Bakery,Bakery,"4041 E Thomas Rd
",http://www.jewelsbakeryandcafe.com/,1 602-714-5243,https://www.facebook.com/JewelsCupcakeShop,info@jewelsbakeryandcafe.com,,,
Jo Jo's Gluten Free Goodies,Bakery,995 Kernot Loch Road,,"
61 404 605 086",https://www.facebook.com/Jo-Jos-Gluten-Free-Goodies-1446967141999887/,,,,
Joey's Home Bakery Gluten Free,Bakery/Cafe,1532 SW 8th St,http://www.joeyshomebakeryglutenfree.com/,1 561-292-4004,https://www.facebook.com/JoeysHomeBakeryGlutenFree/,joey@joeyshomebakeryglutenfree.com,,,
Joy and Sweets,Bakery,"10818A Jefferson Blvd
",http://www.joyandsweets.com/,1 310-730-5362,,Amanda@joyandsweets.com,,,
JP's Pastry,Bakery,"111 S Railroad St
",http://jpspastry.com/,1 919-894-5000,,,,,
Julie's Gluten Free Bakery,Bakery,6686 Wiltshire Street,,1 604-846-3223,https://www.facebook.com/julies.gluten.free.baking/,,,,
Junior Baker,Bakery,165 Lochiel Street,https://juniorbakersarnia.com,1 519-336-0440,,juniorbaker@cogeco.ca,,,
Jurassic Cart,Food Truck,5205 SE Foster Rd ,http://www.jurassiccart.com,1 971-413-3226,https://www.facebook.com/jurassiccart,jurassiccart@gmail.com,,,
Just Be Kitchen,Cafe/Restaurant,2364 15th St,http://justbekitchen.com/,1 303-284-6652,https://www.facebook.com/justbekitchen/,justbeyou@justbekitchen.com/hello@proofpr.net,,,
Jute B?ckerei ,Bakery,"Sch?nhauser Allee 52a
",http://www.xn--jute-bckerei-lcb.de/,49 30 68006558,https://www.facebook.com/jutebaeckerei/,,,,
Kara Lynn's ,Restaurant,421 Cleveland St,https://karalynnskitchen.com/,1 727-447-2536,https://www.facebook.com/karalynnskitchen/,,,,
Karma Baker,Bakery,1145 Lindero Canyon Rd Suite D3 ,https://karmabaker.com,1 747-222-7379,,,,,
Kathy's Creations Bakery,Bakery,2010 Crestview Avenue,http://www.kathyscreationsbakery.com/,1 330-821-8181,,info@kathyscreationsbakery.com,,,
Kim & Jake's,Bakery,"641 S Broadway St
",https://kimandjakes.com,1 303-499-9126,https://www.facebook.com/Kim-and-Jakes-Cakes-164154820669/,info@kimandjakes.com,,,
Kippy's,Ice Cream/Gelato,245 Main Street #3D,https://www.kippysicecream.com/,1 424-387-8765,https://www.facebook.com/145802162283590,kippy@kippysicecream.com,,,
Kippy's Coco-Cream,Ice Cream/Gelato,2-6-3 Sendagaya Shibuya-ku,http://kippyscococream.com/,81 03-6758-0620,,,,,
Kirari West,Bakery,"707 N Pacific Coast Hwy
",https://www.kirariwest.com,1 310-376-5313,https://www.facebook.com/kirariwest/,hiro@kirariwest.com ,,,
Kitava,Cafe,"2011 Mission Street
",https://www.kitava.com/,1 415-780-1661,https://www.facebook.com/kitavakitchen/,info@kitava.com,,,
Kivi Paber K??rid,Restaurant,Telliskivi 60a C4,http://kivipaber.ee,372 600 3626,https://www.facebook.com/kivipaberkaarid/,Liisi@kivipaber.ee,,,
Kizbee?s Kitchen,Bakery,734 W White Horse Pike,,1 609-553-3383,https://www.facebook.com/KizbeesKitchen,,,,
Kleine Shoppe,Bakery,3027 Notre Dame West,,1 514-379-1253,https://www.facebook.com/kleineshoppe/,,,,
Kombuchi Brewing Co,Cafe,"Jalan Raya Batu Mejan No.73
",http://www.kombuchibrewingco.com,62 812-8742-8918,,kristierifkin@gmail.com,,,
Kopi Cream,Cafe,"16 rue Daval
",,33 6 30 39 79 54,https://www.facebook.com/kopicreamcoffee/,,,,
Kupfert & Kim,Cafe,2313 Yonge Street ,http://www.kupfertandkim.com/#kupfertandkim,,https://www.facebook.com/kupfertandkim/,info@kupfertandkim.com,,,
Kupfert & Kim,Cafe,100 Bloor Street West,http://www.kupfertandkim.com/#kupfertandkim,1 416-925-1222,https://www.facebook.com/kupfertandkim/,info@kupfertandkim.com,,,
Kupfert & Kim,Cafe,140 Spadina Avenue,http://www.kupfertandkim.com/#kupfertandkim,1 416-504-2206,https://www.facebook.com/kupfertandkim/,info@kupfertandkim.com,,,
Kupfert & Kim,Cafe,"First Canadian Place, 100 King Street West",http://www.kupfertandkim.com/#kupfertandkim,1 416-504-1233,https://www.facebook.com/kupfertandkim/,info@kupfertandkim.com,,,
Kupfert & Kim,Cafe,"Brookfield Place, 181 Bay Street ",http://www.kupfertandkim.com/#kupfertandkim,1 416-601-1333,https://www.facebook.com/kupfertandkim/,info@kupfertandkim.com,,,
Kupfert & Kim,Cafe,Waterpark Place 20 Bay Street,http://www.kupfertandkim.com/#kupfertandkim,1 416-360-5555,https://www.facebook.com/kupfertandkim/,info@kupfertandkim.com,,,
Kupfert & Kim,Cafe,"Metro Centre, 200 Wellington Street West ",http://www.kupfertandkim.com/#kupfertandkim,1 416-340-7445,https://www.facebook.com/kupfertandkim/,info@kupfertandkim.com,,,
Kupfert & Kim,Cafe,150 King Street West,http://www.kupfertandkim.com/#kupfertandkim,1 416-260-7777,https://www.facebook.com/kupfertandkim/,info@kupfertandkim.com,,,
Kupfert & Kim,Cafe,417 Rue Notre-Dame Ouest,http://www.kupfertandkim.com/#kupfertandkim,1 514-840-3614,https://www.facebook.com/kupfertandkim/,info@kupfertandkim.com,,,
Kupfert & Kim,Cafe,733 Rue Cathcart,http://www.kupfertandkim.com/#kupfertandkim,,https://www.facebook.com/kupfertandkim/,info@kupfertandkim.com,,,
Kye's,Cafe,1518 Montana Ave,http://www.kyesmontana.com,1 310-395-5937,https://www.facebook.com/KyesMontana?ref=br_tf,jeanne@kyesmontana.com,,,
Kyra's Bake Shop,Bakery,"599 A Avenue
",https://www.kyrasbakeshop.com,1 503-212-2979,https://www.facebook.com/kyrasbakeshop,info@kyrasbakeshop.com,,,
L'Eden Libre De Gluten Strasbourg,Bakery,"15 place du temple neuf
",,33 3 90 41 74 95,https://www.facebook.com/edenstrasbourg/,,,,
La Alacena,Bakery/Cafe,,,506 2208 8740,https://www.facebook.com/LaAlacenaGF/,vivianber@gmail.com,,,
La Casolana Gluten Free,Restaurant,"M?sicos del chaco 7344
 c/ Mecònicos de aviaci?n
",,595 984 335075,https://www.facebook.com/pg/lacasolana/about/,,,,
La Coutinelle,Bakery,"25 rue de l?universit?
",http://www.lacoutinelle.fr/,33 4 67 60 95 41,https://www.facebook.com/LaCoutinelleMontpellier,,,,
La Taguara,Cafe/Restaurant,"Carrer Rec, 10, bajos, El Born.",http://www.lataguara.es/en/,34 932 68 15 72,https://www.facebook.com/lataguara/,,,,
La Tortilleria,Restaurant,72 Stubbs Street,http://latortilleria.com.au,61 13 0055 6084,https://www.facebook.com/latortilleriaau,marketing@latortilleria.com.au,,,
Les Gasteliers,Restaurant,123 rue de S?ze,,33 4 78 24 87 11,https://www.facebook.com/Lesgasteliers/?hc_ref=SEARCH&fref=nf,,,,
Le Botaniste NY,Restaurant,833 Lexington Ave,http://lebotaniste.us,1 917-262-0766,,,,,
Le Marquis,Bakery,"367, Rue De Castelnau East",https://boulangerielemarquis.ca/en/,1 514-278-7047,,,,,
Le point sans g,Cafe/Restaurant,6680 Papineau,,1 514-641-7768,https://www.facebook.com/lepointsansg/,,,,
Leggero,Cafe/Restaurant,64 Old Compton Street,http://www.leggero-london.com/,44 20 7434 3617,https://www.facebook.com/LEGGEROlondon/,info@leggero-london.com ,,,
Lemonade Gluten Free Bakery,Bakery,"3385 Cambie St.
",http://www.lemonadebakery.ca,1 604-873-9993,,info@lemonadebakery.ca,,,
Liberated Baking,Bakery,16100 SE 82nd Drive,http://www.liberatedbaking.com,1 503-545-9797,https://www.facebook.com/LiberatedBaking/,,,,
Lifehouse Tonics,Cafe,"10250 Santa Monica Blvd
",https://www.lifehousetonics.com/,1 424-274-3386,,,,,
Lifehouse Tonics,Cafe,7515 Sunset Blvd,https://www.lifehousetonics.com/,1 323-378-5691,,,,,
Lilac Patisserie ,Bakery,"1017 State St
",http://lilacpatisserie.com/,1 805-845-7400,https://www.facebook.com/lilacpatisserie,info@lilacpatisserie.com,,,
Little Gem,"Cafe/Restaurant
",400 Grove St,http://www.littlegem.restaurant,1 415-914-0501,https://www.facebook.com/littlegem.restaurant,info@littlegem.restaurant,,,
Live Organic Food,Cafe,264 Dupont St,https://liveorganicfood.ca/,1 416-515-2002,https://www.facebook.com/LiveOrganicFood/,orders@liveorganicfood.ca,,,
Louise Sans Gluten,Bakery,"475 Avenue Dumont, Suite 109",http://louisesansgluten.com/,1 514 631-3434,https://www.facebook.com/louisesansgluten/,info@louisesansgluten.com,,,
Luce's Gluten-Free Artisan Bread,Bakery,117 Industrial Road,https://www.lucegfbread.com,1 201-725-8706,https://www.facebook.com/LucesGlutenFreeArtisanBread,breadshopnj@gmail.com,,,
Lucita Patisserie,Bakery,,,,https://en-gb.facebook.com/lucitalibredegluten/,,,,
M Raw,Restaurant,"M, Zig Zag Building
74 Victoria St
",https://mrestaurants.co.uk/victoria/,44 020 3327 7776,https://www.facebook.com/mrestaurants.london,victoriastenquiries@mrestaurants.co.uk,,,
Made With Love Not Gluten,Bakery,"1021 W Main St
",http://www.madewithlovenotgluten.com,1 717-919-0921,https://www.facebook.com/MadeWithLoveNotGluten/,,,,
Made's Banana Flour Bakery,Bakery,"Jl. Pantai Batu Bolong No.41
Canggu, Kuta Utara, Kabupaten",https://www.madesbakery.com,62 821-4466-6001,https://www.facebook.com/madesbananaflourco/,madesbakery@gmail.com,,,
Magic Mix Juicery,Cafe,"102 Fulton Street
",http://magicmixjuicery.com/,1 646-454-0680,,MMJ@magicmix.us,,,
Mai Grano ,Bakery,"Via San Jacopo, 113
",,39 050 550243,https://www.facebook.com/maigrano.it/,,,,
Maisie Cafe,Cafe,"32 rue du Mont Thabor
",http://www.maisiecafe.com/,33 1 40 39 99 16,https://www.facebook.com/maisiecafe/,contact@maisiecafe.com,,,
Mama Eat,Cafe/Restaurant,"Via Borgo Pio n.28
",http://www.mamaeat.com/,39 06 4550 8771,https://www.facebook.com/MamaEatStreetFood/,info@mamaeat.it,,,
Mama Resch's ,Bakery,12635 Metcalf Ave,https://mamareschs.com/,1 913-213-5355,https://www.facebook.com/MamaReschs,,,,
Mama's Cheese Bread Factory,Bakery,594 Federal Road,http://www.mamascheesebread.com/,1 203-526-5759,,info@mamascheesebread.com,,,
Manicaretti ,Restaurant,"60, rue de Paradis
",,33 9 51 77 57 30,https://www.facebook.com/manicaretti.paris/,,,,
Manna Dew,Bakery,169 Battersea High Street,http://mannadew.co.uk/,44 7503 200020,https://www.facebook.com/mannadewlondon/,indulge@mannadew.co.uk,,,
Marie Antoinette's ,Bakery/Cafe,316 St Joseph St,https://mariesglutenfree.com/,1 785-989-2366,https://www.facebook.com/mariesbakeshoppe/,,,,
Marilyn's Gluten Free,Bakery,"1007 Mansell Road, Suite D",http://marilynsglutenfree.com,1 770-587-5874,,,,,
Mariposa,Bakery,"SF Ferry Building One, Suite 32
",https://www.mariposabaking.com/,1 310-399-1764,https://www.facebook.com/MariposaBaking,patti@mariposabaking.com,,,
Mariposa,Bakery,"5427 Telegraph Ave., Unit D3
",https://www.mariposabaking.com/,1 510-595-0955,https://www.facebook.com/MariposaBaking,patti@mariposabaking.com,,,
Maui Brick Oven Pizza,Restaurant,"1215 S Kihei Rd, Ste D1",http://mauibrickoven.com/,1 808-875-7896,https://www.facebook.com/mauibrickoven,,,,
Maui Sugar Shop,Bakery,"878 Front St, Ste A10",http://www.mauisugarshop.com,1 808-662-0033,,,,,
MEA Libera Tutti,Grocery Store,"Calle de la Racchetta, 3788
",,39 041 521 0454,https://www.facebook.com/MEA-Libera-Tutti-151997314963984/,,,,
Mehl?s Gluten-Free Bakery,Bakery,"1404 33rd St. S. Suite H.
",http://www.mehlsbakery.com/,1 701-205-4174,https://www.facebook.com/MehlsFlour,mark.mehl@mehlsflour.com,,,
Melinda's Gluten Free Bakery,Bakery,"1420 41st Ave., Ste B
",http://www.melindasbakery.com,1 831-687-9098,https://www.facebook.com/Melindasglutenfree/,melindasgf@gmail.com,,,
Messi? Sin Gluten,Cafe/Restaurant,"Siracusa, 15",http://www.messiepizza.es/messie-sin-gluten/,34 931 19 56 05,https://www.facebook.com/messiesingluten,,,,
Mitchel's Paleo Food Truck,Food Truck,Check website for schedule,http://paleofoodtruck.be,32 495 41 89 01,https://www.facebook.com/mitchelspaleofoodtruck/,mitchel@paleofoodtruck.be,,,
Mixin' It Up,Bakery,106 2nd Ave N,http://mixinitup.org/index.html,1 320-259-7105,https://www.facebook.com/mixinitupglutenfreebakery/,"info@mixinitup.org
",,,
Mmm Coffee,Cafe,910 Santa Fe Dr. Studio 6,http://www.mmm-coffee.com/,1 720-881-1750,https://www.facebook.com/mmmPALEO,paleo@mmm-coffee.com,,,
Mo'pweeze Bakery,Bakery,32 Broadway,https://www.mopweezebakery.com/Default.asp,1 973-664-7833,https://www.facebook.com/mopweeze/,,,,
Molly's Gluten Free Bakery,Bakery,N47 W28270 Lynndale Rd. (Hwy JK),http://mollysglutenfreebakery.com,1 262-369-1404,https://www.facebook.com/mollysgf/,info@mollysglutenfreebakery.com,,,
Mommi,Restaurant,44 - 48 Clapham High Street,https://www.wearemommi.com/,44 20 3814 1818,https://www.facebook.com/wearemommi/,marketing@wearemommi.com,,,
Morgana's Gluten Free Bakery,Bakery,9711 E. 63rd Street,http://www.morganaskc.com/,1 816-313-5113,https://www.facebook.com/morganasglutenfreebakery/,morgana@morganaskc.com,,,
My Petite Factory,Cafe/Restaurant,17 rue neuve,https://mypetitefactory.com/,33 4 78 80 54 56,https://www.facebook.com/mypetitefactory,,,,
Nana Gluten Free,Cafe,Espa?a 984 ,,54 341 605-3821,https://www.facebook.com/nanaglutenfree,,,,
Napoleoni Gluten Free,Bakery,"Via Appia Nuova, 592",http://www.napoleoniglutenfree.it/index.php/it/,39 06 780 4727,https://www.facebook.com/napoleoniglutenfree/,,,,
Nature's Grocer,Bakery/Cafe,81 East St,http://naturesgrocervernon.com/,1 860-870-0020,https://www.facebook.com/NaturesGrocer/,info@naturesgrocers.com,,,
New Beginnings Gluten Free Bakery,Bakery,10 W. Spring St,https://www.newbeginningsbakery.com/,1 641-229-9734,https://www.facebook.com/NewBeginningsGlutenFreeBakery/,newbeginningsbakery@outlook.com,,,
New Cascadia Traditional Bakery,Bakery,"1700 SE 6th Ave
",http://www.newcascadiatraditional.com,1 503-546-4901,https://www.facebook.com/NewCascadiaTraditional,,,,
New Dawn Bakery,Bakery,"1102 Lincoln Way
",http://newdawnbakery.com,1 530-563-6039,https://www.facebook.com/newdawnbakery/,,,,
New Day Gluten Free,Cafe,7807 Clayton Rd.,https://www.newdayglutenfree.com/,1 314-833-5180,https://www.facebook.com/newdayglutenfree/,"
lillie@newdayglutenfree.com",,,
New Freedom Gluten Free Bakery,Bakery,26 Short St,http://www.newfreedombakery.com.au/,61 3 5441 624,https://www.facebook.com/NewFreedomBakery,,,,
New Generation Bakery,Bakery,219 South Union St,http://www.newgenerationbakery.com/,1 320-67906855,https://www.facebook.com/New-Generation-Bakery-137584566665924/,info@rushcitybakery.com,,,
New Grains Gluten Free,Bakery,1281 West 200 North,https://www.newgrains.com/,1 877-977-6443,https://www.facebook.com/NewGrains/,,,,
Niche,Restaurant,197-199 Rosebery Avenue,https://www.nichefoodanddrink.com/,44 20 7837 5048,https://www.facebook.com/nichefoodanddrink/,,,,
Niche,Bakery/Cafe,808 12th Ave,https://www.nicheseattle.com,1 206-999-2801,https://www.facebook.com/NICHEGF,nicheseattle@gmail.com,,,
No Gluten Inc.,Bakery,1355 Rock Mountain Blvd,https://www.nogluteninc.com,1 678-406-0003,,,,,
No More Belly Aching,Bakery,10049 E Grand River Ave,http://www.nomorebellyaching.com/,1 810-225-9773,https://www.facebook.com/NMBAbakery/,customerservice@nomorebellyaching.com,,,
Noglla,Bakery/Cafe,Heinrich-Zille Straˇe 43,https://www.noglla.de/,49 176 97580172,https://www.facebook.com/noglla.de/,,,,
Noglu,Bakery,"1266 Madison Avenue
",http://www.noglu.fr/en/new-york/bakery/,1 646-895-9798,https://www.facebook.com/nogluny/,nogluny@gmail.com,,,
Noglu,Cafe,"16, passage des Panoramas
",http://www.noglu.fr/,33 1 40 26 41 24,https://www.facebook.com/Noglu/,,,,
NoGlu Sorrento,Bakery,Corso Italia 81/A ,http://www.noglusorrento.it/,39 081 1951 9583,https://www.facebook.com/noglusorrento/,,,,
Nuflours,Bakery,"518 15th Ave E
",https://www.nuflours.com,1 206-395-4623,https://www.facebook.com/Nuflours,customerservice@nuflours.com,,,
Nutie,Bakery,13 Beattie Street,http://www.nutie.com.au/,,https://www.facebook.com/wearenutie/,hello@nutie.com.au,,,
Nutrition Republic,Cafe,1/100 King William Road ,http://www.nutritionrepublic.com.au/,61 08 8377 7551,https://www.facebook.com/nutritionrepublic,,,,
Nutrition Republic,Cafe,"Plant 4, 1 Third Street
",http://www.nutritionrepublic.com.au/,61 08 82487062,https://www.facebook.com/nutritionrepublic,,,,
Oceans & Earth,Restaurant,20305 Yorba Linda Blvd,https://www.oceansandearthrestaurant.com/,1 714-970-7027,https://www.facebook.com/oceansandearth,Eat@OceansAndEarthRestaurant.com,,,
Offbeet,Cafe/Restaurant,"Chesapeake Mill, Bridge Street",http://www.offbeetfood.com/,44 01329 833731,https://www.facebook.com/cafemeon,,,,
Officina 37,Restaurant,"Via Savona 93
",,39 02 4895 1430,https://www.facebook.com/ristoranteofficina37,,,,
Okashi Sanda,"Cafe
","Calle San Vicente ferrer 22
",https://www.okashisanda.com/,34 913 65 44 02,https://www.facebook.com/155184794522874,,,,
Olive & Chili,Cafe,51 Rue York,http://olivechili.com,1 613-789-7172,,,,,
Olivia's Oven,Bakery,Call to place an order,http://www.oliviasoven.com/,1 913-208-4475,,,,,
OM Sweet Home,Bakery,708 Anderson Ave.,https://om-sweethome.com/,1 201-943-2253,,,,,
One Dish Cuisine,Bakery/Cafe,8001 Hillsborough Rd,http://www.onedishcuisine.com,1 443-759-6344,https://www.facebook.com/onedishcuisine,,,,
The Butcher's Wife,Restaurant,"19 Yong Siak Street
",http://www.thebutcherswifesg.com/,65 6221 9307,,,,,
Origin Bakery,Bakery,713A Goldstream Ave,http://www.originbakery.com/,1 250-590-8948,https://www.facebook.com/originbakery/,marion@originbakery.com,,,
Origin Bakery,Bakery,1525 Pandora Ave,http://www.originbakery.com/,1 250-590-4149,https://www.facebook.com/originbakery/,marion@originbakery.com,,,
Ouma?s Cottage & Gluten Free Bakery,Bakery,"Pre-order by phone or website
",http://www.oumascottage.com/,1 231-777-3732,https://www.facebook.com/OumasCottage/,oumascottage@gmail.com,,,
Outside the Breadbox,Bakery,2027 West Colorado Ave,http://www.outsidethebreadbox.com/,1 719-633-3434,,Sales@OutsideTheBreadbox.com,,,
P.S. & Co,Cafe,"1706 Locust Street
",https://puresweets.com/,1 215-985 1706,,info@puresweets.com,,,
Palaeo ? Primal Gastronomi,Cafe/Restaurant,"Pilestr?de 32, 1112 K?benhavn K",http://www.palaeo.dk/en/,45 31 49 31 24,,,,,
Paleo Robbie ,Catering/Meal Delivery,website for details,https://paleorobbie.com,66 083-002-3607,https://www.facebook.com/PaleoRobbie/,,,,
Paleoulicious,Cafe/Restaurant,"12, Jalan 7/36, Taman Sri Bintang,
Kepong 52100 Kepong, Wilayah Persekutuan",http://paleolicious.com.my/,60 12-688 9990,https://www.facebook.com/paleolicious.com.my/,,,,
Pana Chocolate,Cafe/Restaurant,491 Church Street,http://www.panachocolate.com,61 13 0071 7488,https://www.facebook.com/panachocolate/,,,,
Pandali,Bakery,"via di Torre Argentina, 3
",http://www.pandali.it/,39 06 6813 6731,https://www.facebook.com/Pandal%C3%AC-1512833819003511/,,,,
Panne Rizo Gluten Free,Bakery,"1939 Cornwall Ave
",http://www.pannerizo.com/,1 604-736-0885,https://www.facebook.com/pannerizobakery/,,,,
Pantry 15,Cafe,15/62 Grafton St ,,61 7 4041 3885,https://www.facebook.com/pantry15cairns/,,,,
Pasteler?a SinTrazas,Bakery,"sells at farmers market
",,506 8832 0063,https://www.facebook.com/pasteleriasintrazas/,,,,
Pasticceria Navotti,Bakery,"Via Giovanni Paisiello 7 (fronte 10)
",http://www.pasticcerianavottisenzaglutine.com/,39 02 2940 1244,https://www.facebook.com/pasticceria.navotti.senzaglutine/,,,,
Senza Glutine Pastepartout,Bakery,"via Cavalieri di Vittorio Veneto 28
",http://www.pastepartout.com/,39 333 979 5996,https://www.facebook.com/pastepartout.senzaglutine,"
info@pastepartout.com",,,
Pasticceria Rosa,Bakery,"Via Giulia 25
",http://www.pasticceriarosa.info,39 040 573079,https://www.facebook.com/Pasticceria-Rosa-127095110808149,,,,
Pasticelia,Bakery,"Carrer de Par?s, numero 165
",http://www.pasticelia.com/en/,34 931 59 79 59,https://www.facebook.com/pasticelia,,,,
P?tisserie Petit Lapin,Bakery,342A Victoria Ave.,http://patisseriepetitlapin.com/en/,1 514-507-4077,https://www.facebook.com/PetitLapinMtl/,,,,
Peace Pies,Cafe,4230 Voltaire Street,http://www.peacepies.com/,1 619-223-2880,,peacepies.contact@gmail.com,,,
Peace Pies,Cafe,133 Daphne Street,http://www.peacepies.com/,1 760-479-0996,,peacepies.contact@gmail.com,,,
Pearl & Groove Bakery,Bakery,"341 Portobello Road
",http://www.pearlandgroove.com/,44 0203 6013 316,,cakes@pearlandgroove.com,,,
Petunia's Pies & Pastries,Bakery,610 SW 12th Ave ,http://petuniaspiesandpastries.com,1 503-841-5961,https://www.facebook.com/PetuniasPiesandPastries,,,,
Pica Pica,Cafe/Restaurant,"401 Valencia Street
",http://picapica.com/,1 415-400-5453,https://www.facebook.com/PicaPicaLOVE,info@picapica.com,,,
Picnik,Cafe,"4801 Burnet Road
",https://picnikaustin.com/pages/visit,1 737-226-0644,https://www.facebook.com/PicnikAustin/,press@picnikaustin.com,,,
Plants,Cafe,"1F., No.10, Ln. 253
Sec. 1 Fuxing S. Rd. Da-an Dist.
",https://www.plantseatery.com.tw,886 2 2784 5677,https://www.facebook.com/plantseatery/,,,,
Plum Bakery,Bakery,179 Glenridge Ave.,http://www.plumonpark.com,1 973-509-7586,https://www.facebook.com/plumbakerygf,,,,
P?k the Raw Bar,Restaurant,"3699 McKinney Ave #306
",http://www.poktherawbar.com,1 214-484-1139,https://www.facebook.com/poktherawbar/,,,,
Pomegranate,Restaurant,"8556 W 3rd St
",http://pomegranatela.com/,1 424-335-0506,,,,,
Pomegranate on Main ,Restaurant,"618 S Main St
",http://www.pomegranateonmain.com,1 864-241-3012,,,,,
Popo Jito,Restaurant,"46 Christie Place
",http://www.popojito.com/,1 914-713-8946,,,,,
Posana Restaurant,Restaurant,"1 Biltmore Ave
",https://posanarestaurant.com,1 828-505-3969,https://www.facebook.com/posanarestaurant,,,,
Posh Pop,Bakery,"192 Bleecker St.
",https://poshpopbakeshop.com/,1 212-674-7674,https://www.facebook.com/PoshPopBakeshop/,,,,
Powerplant Superfood Cafe,Cafe,"5671 W. Pico Blvd.
",http://www.powerplantsuperfoodcafe.com/,1 323-965-2233,,,,,
Primal Kitchen,Cafe,1641 S. Rose Ave,http://www.primalkitchenrestaurants.com,1 888-774-6259,https://www.facebook.com/primalkitchenrestaurants,,,,
Primal Roost Bagshot,Cafe,"53 High St, Bagshot GU19 5AH, UK",http://www.primalroost.com/?v=38dd815e66db,44 1276 850007,https://www.facebook.com/primalroost,lucy@primalroost.com,,,
Puglia Bakery,Bakery,"via oldofredi 25
",https://pugliabakery.com/,39 02 3674 6132,https://www.facebook.com/PugliaB/,,,,
Pumpkin Brown,Cafe,"16 Grassmarket
",http://www.pumpkinbrown.com/,44 131 629 1720,https://www.facebook.com/pumpkinbrownedinburgh,,,,
Pure Gluten Free Bakery,Bakery,"150 Harris Gully Rd
",https://pureglutenfreebakery.wordpress.com,61 3 9844 3464,https://www.facebook.com/pureglutenfreebakery,,,,
Pure Gluten Free Bakery,Bakery,13 Follett Road,https://pureglutenfreebakery.wordpress.com,61 3 9583 1940,https://www.facebook.com/pureglutenfreebakery,,,,
Pushkin's,Bakery,"1820 29th St
",http://pushkinskitchen.com,1 916-376-7752,https://www.facebook.com/PushkinsBakery/,info@pushkinsbakery.com,,,
Quesava ,Bakery,"products are now available in
 160+ stores in Canada",http://quesava.com,1 604-420-0832,https://www.facebook.com/quesava/,melita@quejos.com,,,
Quiero Arepas,Food Truck,check website,http://quieroarepas.com/,0 720-432-4205,https://www.facebook.com/quieroarepas,,,,
Quiero Arepas,Cafe,1859 S Pearl St,http://quieroarepas.com/,1 720-432-4205,https://www.facebook.com/quieroarepas,,,,
Quiero Arepas,Cafe,3200 Pecos St (Avanti),http://quieroarepas.com/,1 720-432-4205,https://www.facebook.com/quieroarepas,,,,
Raegamuffin?s Gluten Free Bakery,Bakery,1552 State Street,http://www.raegamuffins.com/,1 207-942-9400,,raegamuffins@gmail.com,,,
Raw Trader,Cafe/Bakery,10 Sutherland Street,https://www.rawtrader.com.au/,61 4 7869 2008,https://www.facebook.com/rawtrader14,info@rawtrader.com.au,,,
Rawberri,Cafe,"8582 Santa Monica Blvd
",http://rawberri.com/,1 310-652-7010,,hello@rawberri.com,,,
Rawlicious,Cafe,120 Dundas Street West,http://rawlicious.ca/canada/,1 905-493-7070,,info@rawlicious.ca,,,
Rawlicious,Cafe,785 Bathurst Street,http://rawlicious.ca/canada/,1 416-519-7150,,info@rawlicious.ca,,,
Rawlicious,Cafe,381 Cooper St,http://rawlicious.ca/canada/,1 613-565-8030,,info@rawlicious.ca,,,
Rawlicious,Cafe,116 Main Street North,http://rawlicious.ca/canada/,1 905-554-4729,,info@rawlicious.ca,,,
Rawlicious,Cafe,8 Belmont Ave W,http://rawlicious.ca/canada/,1 519-603-8281,,info@rawlicious.ca,,,
Rawlicious,Cafe,1044 King Street West,http://rawlicious.ca/canada/,1 289-389-9997,,info@rawlicious.ca,,,
Real Food Kitchen,Cafe,"1/4 Park Ave Burleigh Heads         
",https://www.realfoodkitchenburleigh.com.au,61 7 5659 1808,https://www.facebook.com/realfoodkitchenburleigh/,info@realfoodkitchenburleigh.com.au,,,
Red Robyn,Cafe/Restaurant,393 Camberwell Rd,http://redrobyn.com.au,61 3 9077 3763,https://www.facebook.com/redrobyncafe,redrobyncafe@gmail.com,,,
RegCakes,Bakery ,748 CR 250N,http://www.regcakes.com/,1 217-299-9457,https://www.facebook.com/RegCakesBakery/,Regina@RegCakes.com,,,
Remixed Bakery,Bakery ,"(No Storefront - order for pickup) 5600 Wilshire Blvd.
",http://www.remixedbakery.com/,1 323-591-0638 ,https://www.facebook.com/remixedbakery,info@remixedbakery.com,,,
"Kaf?-Kaf?
",Cafe,Avenida 52A San Sebastiòn,http://kafe-kafo.com,506 8382 3370,,,,,
Restaurante Caf?-Tal,Restaurant,Plaza Itskatzu Local 116,,506 2228 8171,https://www.facebook.com/pg/RestauranteCafeTal/about/?ref=page_internal,,,,
Revolve True Food & Wine Bar,Restaurant,10024 Main St,http://revolvefoodwine.com,1 425-287-6420,https://www.facebook.com/revolvetruefoodwine/,info@revolvefoodwine.com,,,
Rica Gluten Free,Bakery,Verdijeva 3b,http://www.rica.hr/hr/rica-_-prvi-gluten-free-lokal-u-hrvatskoj/91/13,385 51 374 593,https://www.facebook.com/ricagf,info@rica.hr,,,
Rise Gluten Free Bakery,Bakery,"2409 18th Street NW
",http://www.riseglutenfree.com/,1 202-525-5204,https://www.facebook.com/riseglutenfree/,info@riseglutenfree.com; michael.koritko@gmail.com,,,
Rise Authentic Baking Company,Bakery,"1220 Fulton Street West
",http://www.risegrandrapids.com/,1 616-283-5226,https://www.facebook.com/riseauthenticbaking,nick@risegrandrapids.com,,,
Rising Hearts Bakery,Bakery,"10836 1/2 Washington Blvd.
",http://www.risingheartsbakery.com/,1 310-815-1800,https://www.facebook.com/RisingHeartsBakery,info@RisingHeartsBakery.com ,,,
Risotteria Melotti,Restaurant,"309 E 5th Street
",http://www.risotteriamelottinyc.com,1 646-755-8939,https://www.facebook.com/RisotteriaMelottiNYC,nyc@risotteriamelotti.com,,,
Ristorante Quinoa,Restaurant,"Vicolo di Santa Maria Maggiore, 1
",http://www.ristorantequinoa.it,39 055 290876,https://www.facebook.com/ristorantequinoa/,info@ristorantequinoa.it,,,
Ristorante Sanafollia,Restaurant,"Via Bacchini 23
",,39 334 130 0603,https://www.facebook.com/Ristorante-Sanafollia-Gluten-Free-274627049386507/,,,,
Riz on Yonge,Restaurant,"3321 Yonge Street
",http://www.rizonyonge.com,1 416-322-6789,,,,,
Rough and Bare,Cafe,1/1 Bungan Lane,https://www.roughandbare.com.au,61 02 9999 1950,https://www.facebook.com/roughandbare/,,,,
Rough and Bare,Cafe,3/9 Albany Street,https://www.roughandbare.com.au,61 02 9437 9102,https://www.facebook.com/roughandbare/,,,,
Ruca Umel,Bakery,"Avenida de los Pioneros 
4962-Local 1",,54 294 445-8888,https://www.facebook.com/ruca.umel/,,,,
Rumi's Passion,Bakery,41116 5 Mile Rd,http://www.rumispassion.com/,1 734-335-7145,,rumisgfbakery@gmail.com,,,
Saba Ethiopian,Cafe/Restaurant,328 Brunswick St,http://sabasethiopianrestaurant.com/,61 3 8589 0442,https://www.facebook.com/SabasEthiopianRestaurant/,"	team@sabasethiopianrestaurant.com",,,
Sally's Gluten Free,Bakery,"5920 Roswell Road, Suite 108A ",http://www.sallysglutenfreebakery.com/,1 404-847-0211,https://www.facebook.com/SallysGlutenFreeBakeryAlpharetta/,sallysglutenfreebakery@gmail.com,,,
Sally's Gluten Free,Bakery,"4390 Kimball Bridge Road, Suite B2",http://www.sallysglutenfreebakery.com/,1 470-226-7965,https://www.facebook.com/SallysGlutenFreeBakeryAlpharetta/,sallysglutenfreebakery@gmail.com,,,
Samuel Pepy's Cafe,Cafe,"23 Yorktown Square Launceston
",,61 3 6334 2583,https://www.facebook.com/samuelpepyscafe/,,,,
Sana Locura Gluten Free Bakery,Bakery,"C/ General Oraa, 49
",http://www.sanalocura.es/,34 917 29 57 47,https://www.facebook.com/sana.locura.gluten.free.bakery/,,,,
Sans de bl?,Bakery,"Via Gabriello Chiabrera 58/c
",http://www.sansdeble.it/#3,39 06 6465 0277,https://www.facebook.com/sansdeble/,,,,
Sans Gluten Artisan Bakery,Bakery,39 Greenville Avenue,http://www.sansglutenbakery.com/,1 401-437-6735,https://www.facebook.com/Sansglutenartisanbakery,sansgluten@yahoo.com,,,
Santeez Cafe,Cafe,"93 Kerikeri Road
",,64 9-407 1185,https://www.facebook.com/santeezcafeaglutenfree/,,,,
Sara Bella's Gluten Free,Bakery/Cafe,101-8705 Young Rd,http://sarabellasgf.com,1 604-392-3378,https://www.facebook.com/sarabellasglutenfree/,katherine@sarabellasgf.com,,,
Saratoga Gluten Free,Bakery,"176 Broad Street
",,1 518-695-6565,https://www.facebook.com/SaratogaGlutenFreeGoods/,,,,
Sassy Spoon,Cafe,5011 34th Ave. S,http://www.sassyspoonmpls.com/,1 612-886-1793,https://www.facebook.com/SassySpoonMpls/,info@sassyspoonmpls.com,,,
Scopello,Bakery,Moore Park Foodies & Farmers Market      ,https://www.scopello.com.au,61 411 111 111   ,,,,,
Seedling Cafe,Cafe/Restaurant,275 Flinders Ln,http://www.seedlingcafe.com.au/contact-us.php,61 0450 190 365,https://www.facebook.com/seedlingcafeau/,seedlingcafeau@gmail.com,,,
Seedling Cafe,Cafe/Restaurant,349 Little Collins,http://www.seedlingcafe.com.au/contact-us.php,61 0450 190 365,https://www.facebook.com/seedlingcafeau/,seedlingcafeau@gmail.com,,,
Sensitive Sweets,Bakery,17431 Brookhurst St,http://www.sensitivesweets.com,1 714-968-9169,https://www.facebook.com/SensitiveSweets-119303238084350/?ref=ts,,,,
Senza Gluten,Restaurant,"206 Sullivan St
",http://senzaglutennyc.com/,1 212-475-7775,https://www.facebook.com/SenzaGlutenNYC,info@senzaglutennyc.com,,,
Seoul Spice,Restaurant,"145 N St NE #400
",http://www.seoulspice.com/,1 202-792-8879,https://www.facebook.com/seoulspice/,,,,
Serendpity Cafe,Cafe,664 Main St,http://myserendipitycafe.com,1 727-483-9233,https://www.facebook.com/SerendipityCafe?ref=ts&fref=ts,,,,
Shana Cake,Bakery,435 S Kansas Ave,https://shanacake.com/,1 785-408-1272,https://www.facebook.com/shanacaketopeka/,kelly@shanacake.com,,,
Shana Cake,Bakery,914 Massachusetts St,https://shanacake.com/,1 785-551-7211,https://www.facebook.com/shanacaketopeka/,kelly@shanacake.com,,,
Sherry Lynn's Gluten Free Bakery,Bakery,"1760 State Street
",http://www.sherrylynnsglutenfree.net,1 518-344-6464,,,,,
Shine Restaurant and Potion Bar,Restaurant,2480 Canyon Blvd0,http://www.shineboulder.com,1 303-449-012,https://www.facebook.com/ShineBoulder,jessica@shineboulder.com,,,
Shojin,Restaurant,"12406 Washington Blvd.
",http://www.theshojin.com/,1 760-432-6100,,,,,
Sift Gluten Free,Bakery,4557 Bloomington Ave.,http://siftglutenfree.com/,1 612-503-530,,yummy@siftglutenfree.com,,,
Silex and Fourchette,Cafe,"138 grande rue Saint Michel
",http://www.silexetfourchette.com,33 7 61 25 65 72,https://www.facebook.com/Silexetfourchette/,,,,
Simple Taste,Bakery,"622 South Rangeline Rd., Suite E",http://www.simple-taste.com/,1 317-408-6258,https://www.facebook.com/SimpleTaste.AllergyFreeFoods/,,,,
Simply Gluten Free Bakery,Bakery,123 Lower Dandenong Rd,http://www.simplyglutenfree.com.au,61 3 9583 6256,https://www.facebook.com/simplyglutenfreee/,,,,
Sinfully Gluten Free,Bakery,9146 Dayton Lebanon Pike,http://www.sinfullygf.com/,1 937-433-1044,https://www.facebook.com/SinfullyGlutenFree/,Contact@sinfullygf.com?,,,
Sitron,Bakery,"59 rue des Batignolles
",http://sitron-sansgluten.com/,33 1 40 00 20 95,https://www.facebook.com/sitronsansgluten/,contact@sitron-sansgluten.com,,,
Sitron,Bakery,"15 rue Marie Stuart
",http://sitron-sansgluten.com/,33 1 40 20 92 31,https://www.facebook.com/sitronsansgluten/,contact@sitron-sansgluten.com,,,
SMAK Healthy Fast Food,Cafe,1139 West Pender St,https://smakfastfood.com,1 604-559-7625,https://www.facebook.com/SMAK-healthy-fast-food-240321769434057/?ref=br_rs,info@smakfastfood.com,,,
Smart Green Corner,Restaurant,20 rue Castelnau d?Auros (Gambetta),,33 5 56 23 17 555,https://www.facebook.com/SMARTGREENCORNER,,,,
Snackin' Free,Bakery,"41539 Kalmia St, Ste. 102
",https://www.snackinfree.com,1 951-304-2433,https://www.facebook.com/snackinfree,mrs.s@snackinfree.,,,
Something Sweet Without Wheat,Bakery,19 Sixth Road,http://www.somethingsweetwithoutwheat.com/,1 781-281-2003,https://www.facebook.com/sweetwithoutwheat/,sales@somethingsweetwithoutwheat.com,,,
Springbone Kitchen,Restaurant,"90 W 3rd St
",http://springbone.com/,1 646-368-9192,https://www.facebook.com/springbonekitchen,info@springbone.com,,,
Spudbar,Cafe/Restaurant,"95 Malop Street
",http://www.spudbar.com.au/,61 03 5223 1649,https://www.facebook.com/SpudbarHQ/,,,,
Spudbar,Cafe/Restaurant,175 Maroondah Hwy,http://www.spudbar.com.au/,61 03 8202 5001,https://www.facebook.com/SpudbarHQ/,,,,
Spudbar,Cafe/Restaurant,"1239 Nepean Hwy
",http://www.spudbar.com.au/,61 03 9585 5156,https://www.facebook.com/SpudbarHQ/,,,,
Spudbar,Cafe/Restaurant,176 High Street,http://www.spudbar.com.au/,61 03 9939 8827,https://www.facebook.com/SpudbarHQ/,,,,
Spudbar,Cafe/Restaurant,28 Beach St,http://www.spudbar.com.au/,61 03 9783 5835,https://www.facebook.com/SpudbarHQ/,,,,
Spudbar,Cafe/Restaurant,Werribee Plaza,http://www.spudbar.com.au/,61 03 9974 6524,https://www.facebook.com/SpudbarHQ/,,,,
Spudbar,Cafe/Restaurant,619 Doncaster Rd,http://www.spudbar.com.au/,61 03 9840 2007,https://www.facebook.com/SpudbarHQ/,,,,
Spudbar,Cafe/Restaurant,246 Clarendon S,http://www.spudbar.com.au/,61 03 9078 7717,https://www.facebook.com/SpudbarHQ/,,,,
Spudbar,Cafe/Restaurant,717 Glenferrie Rd,http://www.spudbar.com.au/,61 03 9818 1089,https://www.facebook.com/SpudbarHQ/,,,,
Spudbar,Cafe/Restaurant,590 Chapel St,http://www.spudbar.com.au/,61 03 9826 4399,https://www.facebook.com/SpudbarHQ/,,,,
Spudbar,Cafe/Restaurant,43 Blessington Street,http://www.spudbar.com.au/,61 03 9534 8888,https://www.facebook.com/SpudbarHQ/,,,,
Spudbar,Cafe/Restaurant,"226 Swan Street
",http://www.spudbar.com.au/,61 03 9421 6033,https://www.facebook.com/SpudbarHQ/,,,,
Spudbar,Cafe/Restaurant,"25-55 Overland Dr
",http://www.spudbar.com.au/,61 03 9705 0521,https://www.facebook.com/SpudbarHQ/,,,,
Spudbar,Cafe/Restaurant,"11 Commercial Road
",http://www.spudbar.com.au/,61 03 9533 6051,https://www.facebook.com/SpudbarHQ/,,,,
Spudbar,Cafe/Restaurant,"Level 3, 287 Lonsdale St",http://www.spudbar.com.au/,61 03 8609 8205,https://www.facebook.com/SpudbarHQ/,,,,
Spudbar,Cafe/Restaurant,Cnr Lonsdale & Swanston Street,http://www.spudbar.com.au/,61 03 9662 3224,https://www.facebook.com/SpudbarHQ/,,,,
Spudbar,Cafe/Restaurant,398 Little Bourke St,http://www.spudbar.com.au/,61 03 9602 3841,https://www.facebook.com/SpudbarHQ/,,,,
Spudbar,Cafe/Restaurant,600 Bourke Street,http://www.spudbar.com.au/,61 03 9642 1973,https://www.facebook.com/SpudbarHQ/,,,,
Spudbar,Cafe/Restaurant,567 Collins Street,http://www.spudbar.com.au/,61 039629 3770,https://www.facebook.com/SpudbarHQ/,,,,
Spudbar,Cafe/Restaurant,"LG Food Court, Wintergarden
171-209 Queen St Mall",http://www.spudbar.com.au/,61 07 3210 1945,https://www.facebook.com/SpudbarHQ/,,,,
Squirrel & The Bee,Bakery,515 Millburn Ave.,https://www.squirrelandthebee.com/,1 973-376-4888,https://www.facebook.com/squirrelbeebakeshop/,info@squirrelandthebee.com,,,
Stacy's Gluten Free Goodies,Bakery,5130 S. Dale Mabry Hwy.,https://www.gluten-free-goodies.com,1 813-440-8028,,stacy@gluten-free-goodies.com,,,
Stacy's Gluten Free Goodies,Bakery,14379 N. Dale Mabry Hwy.,https://www.gluten-free-goodies.com,1 813-477-4247,,stacy@gluten-free-goodies.com,,,
Starbene Senza Glutine,Bakery,"Via Fr? Bartolomeo, 203",http://www.starbenesenzaglutine.it,39 0574 726422,,,,,
Starry Lane Bakery,Bakery,"3925 4th Ave
",http://www.starrylanebakery.com,1 619-328-0500,,Help@starrylanebakery.com,,,
Starseed Bakery,Bakery,100 Hibernia Avenue,http://www.starseedbakery.com/,1 973-957-0500,https://www.facebook.com/starseedbakery?fref=ts,StarseedBakery@gmail.com,,,
Station 26,Restaurant,"Coldharbour Lane Unit 26
Brixton Village Market",https://www.station26.co.uk/,44 20 3689 7124,https://www.facebook.com/station26Glutenfree/,station26brixton@gmail.com,,,
Still Delicious,Bakery,13 Boston Post Road,http://stilldelicious.com,1 860-552-4662,,stilldeliciousbakedgoods@gmail.com,,,
Strange Grains ,Bakery,197 Onslow Rd,https://www.strangegrainsbakery.com.au/,61 468 858 157,https://www.facebook.com/strangegrainsbakery,strangegrains@yahoo.com.au,,,
Sugar Daddy's Gluten Free Bakery,Bakery,5 Rodney Street,http://www.sugardaddysedinburgh.com/,44 131 629 6789,https://www.facebook.com/sugardaddysedinburgh,heysugar@sugardaddysedinburgh.com,,,
Sunny Bread,Bakery/Cafe,"736-49 Yongsan-gu
 Hannam-dong
 ",http://www.sunnykr.com/,82 010-2262-5282,https://www.facebook.com/sunnybreadkr/,"
sunny4370@naver.com
",,,
1823 Bakehouse,Bakery,25 E Court St,,1 317-739-0800,https://www.facebook.com/1823bakehouse/,,,,
Sweet 27,Restaurant,127 West 27th St.,http://www.sweet27.com,1 410-464-7211,,,,,
Sweet Ali's Gluten Free Bakery,Bakery,"13 W. 1st Street
",http://www.sweetalis.com/,1 630-908-7175,https://www.facebook.com/SweetAlis,,,,
Sweet Ali's Gluten Free Bakery,Bakery,1107 Waukegan Road,http://www.sweetalis.com/,1 224-432-5530,https://www.facebook.com/SweetAlis,,,,
Sweet Bree's,Online,,https://www.ilovesweetbrees.com/,1 586-925-0555,https://www.facebook.com/sweetbrees/,bree@ilovesweetbrees.com,,,
Sweet Cake Bake Shop,Bakery,"457 E 300 S
",http://sweetcakebakeshop.squarespace.com,1 801-478-6830,https://www.facebook.com/SweetCakeBakeShop,,,,
Sweet Encounter,Online,,https://www.sweetencounterbakery.com/,1 517-763-2479,https://www.facebook.com/sweetencounterbakery/,desserts@sweetencounterbakery.com,,,
Sweet Felicity,Bakery,"311 Walnut Street
",https://www.sweetfelicity.com/,1 513-876-7600,https://www.facebook.com/sweetfelicitybakeshop/,info@sweetfelicity.net,,,
Sweet Freedom Bakery,Bakery,"1424 South St
",http://www.sweetfreedombakery.com,1 215-545-1899,https://www.facebook.com/SweetFreedomBakery/,sweetfreedombakery@gmail.com,,,
Sweet Love Pastry,Bakery,6678 Stirling Rd,https://www.sweetlovepastries.com,1 954-322-8291,https://www.facebook.com/sweetlovepastry,Lovepastrysugar@gmail.com,,,
Sweet Megan,Bakery,"234 Holland Rd.
",http://www.sweetmeganbakery.com/,1 267-288-5080,https://www.facebook.com/gfsweetmegan,info@sweetmeganbakery.com,,,
Sweet Natalie's,Bakery,228 S 3rd St,http://sweetnataliesgeneva.com/,1 630-232-7434,https://www.facebook.com/SweetNatalies,sweetnataliesgeneva@yahoo.com,,,
Sweet Treat Without Wheat,Bakery,"2809 Arthur Ave, Des Moines, IA 50317, USA",http://www.sweettreatwithoutwheat.com/,1 515-975-3286,,,,,
Sweetah's Gluten Free Bake Shop,Bakery,"50 S. Main Street
",https://www.sweetahs.com/,1 267-736-6663,,sweetahs1@gmail.com,,,
Sweetfin Poke,Cafe,,https://www.sweetfinpoke.com/,,,INFO@SWEETFIN.COM,,,
Sweetfin Poke,Cafe,"6256 Topanga Canyon Blvd, Suite 1310",https://www.sweetfinpoke.com/,1 818-888-8970,,INFO@SWEETFIN.COM,,,
Sweetfin Poke,Cafe,1146 Abbot Kinney Blvd.,https://www.sweetfinpoke.com/,1 310-355-8590,,INFO@SWEETFIN.COM,,,
Sweetfin Poke,Cafe,829 Broadway,https://www.sweetfinpoke.com/,1 310-395-1097,,INFO@SWEETFIN.COM,,,
Sweetfin Poke,Cafe,"4301 La Jolla Village Dr., Suite 2035
",https://www.sweetfinpoke.com/,1 858-251-4840,,INFO@SWEETFIN.COM,,,
Sweetfin Poke,Cafe,"3112 Sunset Blvd
",https://www.sweetfinpoke.com/,1 323-300-6210,,INFO@SWEETFIN.COM,,,
Sweetfin Poke,Cafe,735 West 7th Street,https://www.sweetfinpoke.com/,1 213-599-8050,,INFO@SWEETFIN.COM,,,
Sweetfin Poke,Cafe,"8075 West 3rd Street, Suite 100
",https://www.sweetfinpoke.com/,1 323-934-3701,,INFO@SWEETFIN.COM,,,
Sweetfin Poke,Cafe,"1146 Westwood Blvd
",https://www.sweetfinpoke.com/,1 310-231-0190,,INFO@SWEETFIN.COM,,,
Sweetfin Poke,Cafe,135 North Larchmont Blvd,https://www.sweetfinpoke.com/,1 323-465-6040,,INFO@SWEETFIN.COM,,,
Sweetopia,Bakery/Cafe,217 West Ayre Street,https://www.sweetopia.biz,1 302-668-1490,,info@Sweetopia.biz,,,
t.Loft,Cafe,8025 Stateline Road,http://www.tloft.net,1 816-214-5750,https://www.facebook.com/t.teabar,,,,
t.Loft,Cafe,200 W. 47th Street,http://www.tloft.net,1 816-541-4849,https://www.facebook.com/t.teabar,,,,
t.Loft,Cafe,3924 W. 69th Ter,http://www.tloft.net,1 913-217-7930,https://www.facebook.com/t.teabar,,,,
t.Loft,Cafe,5225 W. 116th Place,http://www.tloft.net,1 913-912-7211,https://www.facebook.com/t.teabar,,,,
t.Loft,Cafe,4801 Bauer Farm Drive,http://www.tloft.net,1 785-505-0770,https://www.facebook.com/t.teabar,,,,
Taffets Bakery and Store,Bakery,"1024 S 9th St
",http://www.taffets.com/,1 215-551-5511,https://www.facebook.com/totebakery/,taffetsbakery@gmail.com,,,
Tandem Doughnuts,Bakery,Missoula's Farmer's Market S Pattee St,http://www.tandemdoughnuts.com,1 406-239-3997,https://www.facebook.com/TandemDoughnuts,tandemdoughnuts@gmail.com,,,
Tao-Organics,Cafe/Restaurant,"210-150 Esplanade West
",http://www.taoorganics.com,1 604-971-5108,https://www.facebook.com/TAOOrganics,cafe@taoorganics.com,,,
TAP NYC,Cafe,267 Columbus Ave.,http://tapnyc.com/,1 917-261-2094,https://www.facebook.com/tapiocarianyc,simonsenroberto@tapnyc.com,,,
TAP NYC,Cafe,"103 North 3rd St.
",http://tapnyc.com/,1 917-261-2094,https://www.facebook.com/tapiocarianyc,simonsenroberto@tapnyc.com,,,
Tapateria,Restaurant,"2607 W Colorado Ave
",http://www.tapateria.com/,1 719-471-8272,https://www.facebook.com/TAPAteria/?v=wall,,,,
Tapioca Toronto,Food Truck,Dufferin Grove Farmer?s Market,,1 416-837-0302,https://www.facebook.com/tapiocatoronto/,,,,
Tasty Bakery,Bakery,416 West Huron St. Suite 24,http://www.tastysansgluten.com/,1 734-707-1046,,julie@tastysansgluten.com,,,
Tawa Bakery,Bakery,"Al Muneera Beach Plaza, Al Muneera, Al Raha Beach - Abu Dhabi - United Arab Emirates",https://tawa.ae/,971 2 556 6900,https://www.facebook.com/tawabakery/,stefan@tawa.ae,24.4519579,54.6023693,https://goo.gl/maps/EWx4oLpzdeqzECqk6
The BakeHouse,Bakery,"Cartago, Costa Rica",,506 2278 2256,https://www.facebook.com/TheBakehouseGlutenfree/,,,,
The Cookie Connection,Bakery,"2803 Brewerton Rd, Syracuse, NY 13211, USA",http://www.tccglutenfree.com/,1 315-422-2253,https://www.facebook.com/The-Cookie-Connection-Gluten-Free-Bake-Shop-209241299158672/,,43.1073055,-76.1510253,https://goo.gl/maps/L72ruVTtr3tbYCo3A
The Food Forest,Cafe,"135 Hunter St W, Peterborough, ON K9H 2K7, Canada",http://www.foodforestcafe.com,1 705-874-1888,https://www.facebook.com/FoodForestcafe,,44.3058435,-78.3215853,https://goo.gl/maps/HWjnRsHJDb85Njtt9
The Gluten Escape ,Bakery,"7255 S Havana St #110, Centennial, CO 80112, USA",http://theglutenescape.com,1 303-694-9999,,info@theglutenescape.com,39.584995,-104.8695656,https://goo.gl/maps/WoYSS7MJZrXekXEJ8
The Gluten Free Bakery,Bakery,"54 Main St, Chatham, NY 12037, USA",http://www.odbefree.com/,1 518-380-0170,,ORDER.ODB@GMAIL.COM,42.3636335,-73.597582,https://goo.gl/maps/6TWTR9uemey5Uu156
The Gluten Free Epicurean,Bakery/Cafe,"633 E 15th Ave, Vancouver, BC V5T 2R4, Canada",http://www.glutenfreeepicurean.ca,1 604-876-4114,https://www.facebook.com/THE-GLUTEN-FREE-EPICUREAN-121625667855607/,info@glutenfreeepicurean.ca,49.2572946,-123.0926329,https://goo.gl/maps/kKA7AUow73Bp3JUDA
The Gluten Free Kitchen,Bakery,"Unit 4d, Leyburn Business
Park, Harmby Road",https://www.theglutenfreekitchen.co.uk/,44 1969 622222,https://www.facebook.com/theglutenfreekitchen,info@theglutenfreekitchen.co.uk,0,-86.2144122,https://goo.gl/maps/BjvhdgFCR1M2wnRAA
The Gluten Free Oven,Bakery,"2001, 125 W Main St, Mt Pleasant, PA 15666, United States",http://theglutenfreeoven.net/,1 724-542-4457,,,40.147546,-79.5387037,https://goo.gl/maps/6EwBr9yApwfLXf3V8
The Good Cookies & Beyond,Bakery,"2081 Torrance Blvd, Torrance, CA 90501, USA",http://www.thegoodcookies.com/,1 310-320-7900,https://www.facebook.com/thegoodcookiesglutenfree,info@thegoodcookies.com,33.8366772,-118.3211237,https://goo.gl/maps/EfHuvMQXfPD3ioXw7
The Grain Exchange,Online,,https://www.thegrainexchange.net/,1 215-531-1261,,,,,
The Happy Mixer Gluten Free Bakery,Bakery,"12 Summit Square, Langhorne, PA 19047, USA",https://www.thehappymixer.com,1 215-860-1989,https://www.facebook.com/TheHappyMixerBakery,info@thehappymixer.com,40.2410686,-75.1459307,https://goo.gl/maps/hJiAr7hCtZ6sEtq79
The Happy Mixer Gluten Free Bakery,Bakery,"4275 County Line Rd, Chalfont, PA 18914, USA",https://www.thehappymixer.com,1 267-663-7209,https://www.facebook.com/TheHappyMixerBakery,info@thehappymixer.com,40.2410263,-75.1459308,https://goo.gl/maps/GHDRTE3tHtnZnuWu5
The Happy Tart Falls Church,Bakery,"410 S Maple Ave #110, Falls Church, VA 22046, USA",https://www.happytartbakery.com/,1 571-395-8280,https://www.facebook.com/TheHappyTartFallsChurch/,info@happytartbakery.com,38.8802943,-77.1800545,https://goo.gl/maps/ht8rdxJw1h52Gut4A
The Joy of Gluten Free,Bakery,"617 Bank St, Ottawa, ON K1S 3T5, Canada",http://www.thejoyofglutenfree.com,1 613-656-5252,,thejoyofglutenfree@gmail.com,45.407292,-75.6928145,https://goo.gl/maps/samoNxrLL7wwtp4j7
The Joy of Gluten Free (West End),Bakery,"250 Greenbank Rd #5b, Nepean, ON K2H 1E9, Canada",http://www.thejoyofglutenfree.com,1 613-907-1252,,thejoyofglutenfree@gmail.com,45.3244319,-75.781553,https://goo.gl/maps/zZTfYqWJCHn3PdKQ9
The Joyful Food Co,Bakery/Cafe,"759 Shades Mountain Plaza, Hoover, AL 35226, USA",https://www.thejoyfulfoodco.com/,1 205-538-7967,,info@thejoyfulfoodco.com,33.4141833,-86.8462917,https://goo.gl/maps/RRrTPQZJKFNj5ytN9
The Juice Truck Smoothie Cart,Food Truck,"970 Robson St, Vancouver, BC V6Z 2E7, Canada",https://www.thejuicetruck.ca,1 604-260-6943,https://www.facebook.com/JuiceTruck/,drink@thejuicetruck.ca,49.2649634,-123.1294986,https://goo.gl/maps/mkyX5N6A6kaEs8vs9
The Juice Truck Yaletown,Cafe,"1022 Mainland St, Vancouver, BC V6B 2T5, Canada",https://www.thejuicetruck.ca,"1 604-428-7825
",https://www.facebook.com/JuiceTruck/,drink@thejuicetruck.ca,49.2649661,123.1294986,https://goo.gl/maps/nK1FYEpCXKeEZeQZ9
The Juice Truck 5th Ave,Cafe,"28 W 5th Ave, Vancouver, BC V5Y 1H5, Canada",https://www.thejuicetruck.ca,1 604-260-6943,https://www.facebook.com/JuiceTruck/,drink@thejuicetruck.ca,49.2649714,-123.1294986,https://goo.gl/maps/XUJBQn5pC2FVorVE8
The Juice Truck,Cafe,12151 First Ave,https://www.thejuicetruck.ca,1 604-285-5404,https://www.facebook.com/JuiceTruck/,drink@thejuicetruck.ca,,,
The Juice Truck,Cafe,"4236 Main St, Vancouver, BC V5V 2H1, Canada",https://www.thejuicetruck.ca,1 604-620-6768,https://www.facebook.com/JuiceTruck/,drink@thejuicetruck.ca,49.2649687,-123.1294986,https://goo.gl/maps/CydzEZhxfBHeDgUF7
The Little Beet ,Cafe,"Central Place, 1800 N Lynn St, Arlington, VA 22209, United States",https://www.thelittlebeet.com,1 212-459-9601,https://www.facebook.com/littlebeet,,38.896944,-77.0732169,https://goo.gl/maps/apGcjy3hFYwRXoVz6
The Little Beet ,Cafe,"2 Pennsylvania Plaza, New York, NY 10121, USA",https://www.thelittlebeet.com,1 212-682-0650,https://www.facebook.com/littlebeet,,40.7497322,-73.9946656,https://goo.gl/maps/Bu7ByZSYAtVYJqHQA
